id,lat,long,name,address,word
ChIJ2ZXz2xtm0FQRgeg37d6jGLM,41.770273,-124.1996319,High Tide Vapes,1329 Northcrest Dr Crescent City CA 95531 USA,ecig
ChIJW7EPKARX0VQR-XIQ22tYNi4,40.857374,-124.0720431,Ω Divine Tribe Ω,56 Sunnybrae Center Arcata CA 95521 USA,ecig
ChIJ6-8RIflkgYAR--0b7eWj7Kw,39.1458965,-123.2070495,Build A Ecig,534 S State St Ukiah CA 95482 USA,ecig
ChIJx6wc2EwGhYAR5mMR5QJTMGQ,38.2877861,-122.3100226,E-Cig 101 Napa,2762 Old Sonoma Rd Napa CA 94558 USA,ecig
ChIJYaJAh3aQmYAR9t_7LcLsKn8,38.9559458,-119.944709,Tahoe Big Cloudz #2,4035 Lake Tahoe Blvd South Lake Tahoe CA 96150 USA,ecig
ChIJM9DQ2haHhYARXa-nfxXm3l4,37.780882,-122.474169,Vapurr Labs Express e-cig and e-liquid,5100 Geary Blvd San Francisco CA 94118 USA,ecig
ChIJ-24WSBKHhYARqzj9t0CTGrY,37.7764922,-122.4784859,Vapurr Labs Express e-cig and e-liquid,1821 Balboa St San Francisco CA 94121 USA,ecig
ChIJmfOMuwm0hYAR5iFCEkWzP98,38.2499079,-122.6291653,Smoke Depot Smoke Shop,231 N McDowell Blvd Petaluma CA 94954 USA,ecig
ChIJpTxWAv9CkYARI4kY6sO8PRo,37.302151,-120.485261,The Vapors Merced,615 W Main St Merced CA 95340 USA,ecig
ChIJeZZPYFB13IARH5xMd8PPahs,33.1354157,-117.1821653,Cloud 9 E-Cig,813 W San Marcos Blvd San Marcos CA 92078 USA,ecig
ChIJZZjc1_Y0joARUjMdiU4d89c,37.2731222,-121.9321672,Atomic eCigs,2686 Union Ave San Jose CA 95124 USA,ecig
ChIJQeL8vchswYARJ_QA5hfJacY,35.6256851,-117.6713901,KCW Vapors,257 Balsam St Ridgecrest CA 93555 USA,ecig
ChIJI1PJ7VlawoAR0YLd1USUzZ8,34.6600306,-118.1462056,ENDLESS VAPORS,818 W Ave L Lancaster CA 93534 USA,ecig
ChIJBxCN2Xlkw4ARje-p8sPJoFQ,34.5421357,-117.2713443,The Broke Smoker Vape Shop,16025 Kamana Rd #101 Apple Valley CA 92307 USA,ecig
ChIJyQyEXpJjw4ARCYt0Jbt7qR8,34.53865,-117.254482,Vaper Rizing,18768 US Highway 18 #165 Apple Valley CA 92307 United States,ecig
ChIJfdHNPJNjw4ARJD4BWxhd29c,34.5370907,-117.2529202,Smokin Out Vapor Glass & More,18835 CA-18 Apple Valley CA 92307 USA,ecig
ChIJwzVCl6K7woARErBhUbWI8eU,34.0411842,-118.4297377,CIGAVETTE,2355 Westwood Blvd Los Angeles CA 90064 USA,ecig
ChIJf8kRuhO-woARjCDbrNrSbo4,34.1404837,-118.3774487,Vaporcade,11271 Ventura Blvd #176 Studio City CA 91604 USA,ecig
ChIJ7Rqlk4_GwoARCio_GtSoqGQ,34.0829834,-118.2185429,The Drip Club,2664 Lacy St b Los Angeles CA 90031 USA,ecig
ChIJbaaWJcM0w4ARyHVpZmNuedw,34.036221,-117.609083,RUTHLESS VAPOR,2040 S Lynx Pl Ontario CA 91761 USA,ecig
ChIJAbpyfvbI3IARVFuV-X6TPuo,33.8821994,-117.599305,SimpleCig Electronic Cigarette,1785 Pomona Rd b Corona CA 92880 USA,ecig
ChIJZ5c9VDc50YAR97-bqDJi-Ec,33.6113796,-114.5892895,Vape it Forward,601 E Hobsonway Blythe CA 92225 USA,ecig
ChIJJ81AS_p03IARW8Ulyp_lW8Q,33.1507506,-117.229466,Vape Craft Inc,2322 La Mirada Dr Vista CA 92083 USA,ecig
ChIJLywwE6Di24ARTC8851pFwaQ,32.8453891,-116.9631394,Imperial Smoke,10870 Hartley Rd B Santee CA 92071 USA,ecig
ChIJa_WIwBdmw4ARnC9m5vh3CLI,34.473356,-117.348231,E Cigarette,14400 Bear Valley Rd Victorville CA 92392 USA,ecigarette
ChIJaXa4PySWnYARjlfKkemre0M,40.415152,-120.6503782,Lassen Vape,1604 Main St Susanville CA 96130 USA,ecigarette
ChIJo8Z91Qchm4ARwWdlnrTYlQ8,38.7622503,-121.3126397,3 Monkeys Smoke & Vape Shop,5140 Foothills Blvd #170 Roseville CA 95747 USA,ecigarette
ChIJMTL4JZdhhYARG80iU6ILILU,37.9066547,-122.0659795,To The Cloud Vapor Store,1990 N California Blvd Walnut Creek CA 94596 USA,ecigarette
ChIJCQrLcT2t6YARwD21CNljZz8,34.276047,-119.26469,Coil Oil,2350 E Main St #101 Ventura CA 93003 USA,ecigarette
ChIJp74lf13f3IAREfM76u_g44w,33.676565,-117.915962,Electronic E Cigarette Liquid,2855 Pinecreek Dr Costa Mesa CA 92626 USA,ecigarette
ChIJq6qqqq0pw4ARiBh-tkajCOo,34.0345838,-117.9368484,Vapebox,15940 Kaplan Ave City of Industry CA 91744 USA,ecigarette
ChIJvybJlcjZ3IARqu4ujDg1F0g,33.7760532,-117.8690666,Green Nicotine Electronic Cigarette,2850 N Main St Santa Ana CA 92701 USA,ecigarette
ChIJNa7bnk6q3IARir2e_UTieRY,34.0571405,-117.2145494,Electric Lotus Manufacturing,1740 Howard Pl Redlands CA 92373 USA,ecigarette
ChIJ_QjdcSPGwoARJfFEfw6Mes8,34.0376406,-118.2341354,Ttzig Electronic Cigarette Spl,1340 E 6th St Los Angeles CA 90021 USA,ecigarette
ChIJVYyHw3ji24AR8RFD2vgh2hY,32.8533448,-116.9313928,Smoker's Choice,9662A Winter Gardens Blvd Lakeside CA 92040 USA,ecigarette
ChIJH5v27wBe14ARduTp3cYXmcs,32.824815,-115.569949,Deluxe Vapes,690 Main St El Centro CA 92243 USA,ecigarette
ChIJh7C6wJVGzlQRfV7W50nQCzc,41.6985384,-122.6387513,North Cloud Vape Distribution,2216 Fairlane Rd D Yreka CA 96097 USA,vape
ChIJE9sti-3QhIAREJxsrG0bpQg,38.6784212,-121.783109,Star Zone Smoke and Vape shop,9 Main St Woodland CA 95695 USA,vape
ChIJtb_0BPj_01QRTUJsEMMWox0,40.7814714,-124.1851941,S.T.I.L.,2940 Broadway St # E Eureka CA 95501 USA,vape
ChIJXbhY_Zjs0lQR8TbfdyWYs0o,40.5633269,-122.361982,Puffys Vapes & Smokes,3025 Bechelli Ln Redding CA 96002 USA,vape
ChIJ20Ch58_r0lQRjk8kgIkSgt0,40.521308,-122.382949,Tobacco & More,6392 Westside Rd # E Redding CA 96001 USA,vape
ChIJ_Ub0fzKT0lQR-wJ89UYDC54,40.5875892,-122.3529269,Smoke & Vape,1340 churn creek rd suite C1 Redding CA 96003 United States,vape
ChIJAQCQJKHs0lQRLPwVgi81cKs,40.5630873,-122.3511032,Mad Cloudz Vape,1109 Hartnell Ave #8 Redding CA 96002 USA,vape
ChIJ_9viYxPB0lQRp5612RdFtv0,40.4537311,-122.2876965,Tobbacco&More,2619 Balls Ferry Rd Anderson CA 96007 USA,vape
ChIJn7Wf0ruDgoARdQZl7YWOlm0,40.1778497,-122.2362779,Sub Culture,335 Walnut St Red Bluff CA 96080 USA,vape
ChIJSSmW9weDgoARQnnN5wNouN0,40.180661,-122.228241,Tobacco & More,84 Belle Mill Rd Red Bluff CA 96080 USA,vape
ChIJsXwN-zSCgoARZRW9VCjaeaE,40.188417,-122.245988,TLC Scientific Lab-Store,111 Treasure Dr Red Bluff CA 96080 USA,vape
ChIJTbAQlDQmg4AR4OMNsDT-T7Q,39.721829,-121.828965,Hi Five Tobacco,1414 Park Ave Chico CA 95928 USA,vape
ChIJqzo9KGT_g4ARWBBsutuxgSA,38.800351,-123.0170339,Aces High Smoke Shop,421 S Cloverdale Blvd Cloverdale CA 95425 USA,vape
ChIJL7nuZ_lkgYART-vNQWZm-_Y,39.14758,-123.206834,Emerald Triangle Glassworks,415 S State St Ukiah CA 95482 USA,vape
ChIJIW8VO8mLg4ARYNQxfvTdfK8,38.9546489,-122.6456896,A & T's Tobacco N More,14260 Lakeshore Dr Clearlake CA 95422 USA,vape
ChIJrU4xlqe2hYARMErAnZrjNxs,38.234041,-122.641007,The Mighty Quinn,16 Western Ave Petaluma CA 94952 USA,vape
ChIJXwAegzrWmoARGt4nNXy84cY,38.646727,-121.491775,Sahara Hookah / CHI VAPE,1309 N Market Blvd #200 Sacramento CA 95834 USA,vape
ChIJcSUyESbbmoARrs4yWm5e27w,38.548648,-121.393785,Habits Vape & Smoke shop,8391 Folsom Blvd #7 Sacramento CA 95826 USA,vape
ChIJue2zQ3I4hIARX8ELgpaFMPw,38.4573137,-122.7305947,The Humidor,746 Coddingtown Center Santa Rosa CA 95401 USA,vape
ChIJP1uBWLJ2hYAR3ae0gz_OXC8,38.0357716,-122.2682364,Vape Breakfast Classics - E Liquid,527 Second St Rodeo CA 94572 USA,vape
ChIJGViwpBB2hIARN1mbgOHfvqI,38.9115863,-122.6117932,Ritchey's Riptide Lounge,9800 CA-53 Lower Lake CA 95457 USA,vape
ChIJ4Wsi4U4nm4AR-V5nPGNmeEs,38.7127818,-121.3624676,3 Monkeys vape & smokes,4400 Elverta Rd unit 130 Antelope CA 95843 USA,vape
ChIJxxp8GhzSmoARmwgnGhPmdf0,38.5082665,-121.5424185,Greenhaven Smoke and Vape Shop,261 Florin Rd Sacramento CA 95831 USA,vape
ChIJTfn8aDw9m4ARqbt-urLm4v4,38.887108,-121.2932229,Bee 2 Vape & Smoke Shop,150 G St Lincoln CA 95648 USA,vape
ChIJFzgUUc0im4ARqxbDXyp_hh4,38.8705568,-121.2965063,3 Monkeys Vape and Smoke Shop,900 Sterling Pkwy #50 Lincoln CA 95648 USA,vape
ChIJHRjY_mXZmoARavLTgM_vilU,38.627363,-121.38385,Cigarettes And More,3413 Watt Ave Sacramento CA 95821 USA,vape
ChIJWSXnjvIlhYARvOOfhqFFIJo,38.4696462,-121.821183,3 Monkeys #3 Dixon, CA,115 E Dorset Dr Dixon CA 95620 USA,vape
ChIJu9-DrNjQhIARvvnT9PGaZ8A,38.669155,-121.764585,Highlife Smoke And Vape Shop,825 East St #105 Woodland CA 95776 USA,vape
ChIJTQym0_Yfm4ARCWmgnfGE3bo,38.7432426,-121.2568058,3 Monkeys Vape and Smokes,1850 Douglas Blvd Roseville CA 95661 USA,vape
ChIJH2a3FU3amoARvtDg3SrmUcQ,38.585709,-121.400502,Twisted Smoke Shop Fulton Ave,1120 Fulton Ave Sacramento CA 95825 USA,vape
ChIJq_t7Uclxm4ARp_rZkW0sIhY,39.198943,-121.062727,Cig Mart smoke shop,151 W McKnight Way # G Grass Valley CA 95949 USA,vape
ChIJ8xIeSZZQmoARdIl13GS49C0,38.7319012,-120.7792811,Broadway Smoke n Vape,1390 Broadway Placerville CA 95667 USA,vape
ChIJf2DrGnnfmoAR5jTb-x3iimI,38.7092794,-121.3118786,Vape and Smoke 4 Less,7883 Lichen Dr Citrus Heights CA 95621 USA,vape
ChIJ3XGkvo5XhYAR9wAdod0_jbM,37.9840745,-121.8038805,Mistique Vape & Taste Saloon,3721 Sunset Ln #105 Antioch CA 94509 USA,vape
ChIJr4yy4MDgj4ARk3svpak9Kz4,37.7052707,-121.7009696,VaporWarehouse,7697 Hawthorn Avenue Livermore CA 94550 USA,vape
ChIJry45VC98hYARagjUmR5u-yk,37.8685843,-122.2594428,WHELANS GLASS GALLERY, VAPOR, CIGAR, GIFT & SMOKE SHOP,2486 Bancroft Way Berkeley CA 94704 USA,vape
ChIJ44OeAfmfmoAR7lWaFIausoo,38.1283065,-121.2593679,Tobacco City N Vape,550 S Cherokee Ln # G Lodi CA 95240 USA,vape
ChIJddb2DB5ehYARlIfwdVoh_qg,37.963274,-121.990655,Voltage Smoke & Gifts,4330 Clayton Rd Concord CA 94521 USA,vape
ChIJm_P4GJRmhYARV7ptORNfOTY,37.979357,-122.065885,Legends Smoke Shop,565 Contra Costa Blvd Pleasant Hill CA 94523 USA,vape
ChIJpeG1umUCkYARgJb_5tofe7M,37.6372761,-120.7674063,Jays Vape & Tobacco,12162 Yosemite Blvd Waterford CA 95386 USA,vape
ChIJi0ZboV8MkIARxBaE1VL8h_s,38.0082004,-121.3099944,Stockton Smokeshop & Vape,6107 N El Dorado St Stockton CA 95207 USA,vape
ChIJY2-dBSWgmoARfwB2dGap0Fg,38.1446198,-121.2717539,Big Blaze smoke shop,851 N Sacramento St Lodi CA 95240 USA,vape
ChIJKxi_NtLFkIARRJ4oOqq2Td0,37.982741,-120.3849373,Sierra Smoke 'n Vape,4952 152 W Stockton St Sonora CA 95370 United States,vape
ChIJ0aJzF_opw4AR-LJPSziobHc,34.0330299,-117.9151196,The Vape Society,2411 S Azusa Ave West Covina CA 91792 USA,vape
ChIJsyFoZoYu3YAR4F3jE60rTxw,33.8177385,-118.0607799,Vapor Zone Vape Shop,9923 Walker St Cypress CA 90630 USA,vape
ChIJ350IlUzKj4AReO7sY0H5Fqo,37.3540536,-121.9490435,Hot Box Smoke Shop,1111 El Camino Real #3 Santa Clara CA 95050 USA,vape
ChIJCzk1DzEbjoAR7C5IGCh6S4Q,36.9027262,-121.7484766,DULEE'S TOBACCO,53 Porter Dr Watsonville CA 95076 USA,vape
ChIJOTnksc6wj4ARdMxObuLryNM,37.3889596,-122.0897584,Fatty Zone,1398 W El Camino Real a Mountain View CA 94040 USA,vape
ChIJ6STg5EPpj4ARqwBIrNAaf7U,37.6903321,-121.8852534,FonDude E-Juice,5627 Stoneridge Dr #322 Pleasanton CA 94588 USA,vape
ChIJJ_wOcvB-kYARrJXJX6_ey1k,37.0565392,-120.8377236,Uptown smoke shop,1247 E Pacheco Blvd Los Banos CA 93635 USA,vape
ChIJKZIryMdDkYARl1IsIOQR2YI,37.330727,-120.468165,Cigarettes & Cigars,3528 G St Merced CA 95340 USA,vape
ChIJw3MkRQ1rkYARg2oL_bPzUrM,37.3595774,-120.596132,World of Smoke,2698 First St Atwater CA 95301 USA,vape
ChIJOYhRy1lCkYARxA89I_fl_i8,37.3038634,-120.4947183,Smoke Palace,1204 W 16th St Merced CA 95340 USA,vape
ChIJzQhMStZnlIARv67p4pnlV2g,36.8235916,-119.8267089,THE GREENMILE VAPE & SMOKE SHOP,2014 W Bullard Ave Fresno CA 93711 USA,vape
ChIJJb7Pk0IMlIARBT5A4jZ1BKI,36.9721144,-120.0422769,Toby's Vapes,1490 Tozer St Madera CA 93638 USA,vape
ChIJMVIvkU_4lIARApidHrMUNdg,36.7063844,-119.5707338,Drip Vapor Lounge,2407 Jensen Ave Sanger CA 93657 USA,vape
ChIJf4uskWVnlIARgHRPU3DKF3Q,36.7791899,-119.8003233,Tower Smoke,3135 N Maroa Ave Fresno CA 93704 USA,vape
ChIJ9T9JONHilIARhSoOTU0s0CE,36.6033874,-119.4583388,Reedley Smoke Shop,793 N Reed Ave Reedley CA 93654 USA,vape
ChIJ-YLV8KYb24AR23PxGI3qPk4,33.8191088,-116.5458593,Michael's Vape Shop,333 S Indian Canyon Dr Palm Springs CA 92262 USA,vape
ChIJd8PGQRnY3IARa3x6rCQr9CU,33.7934147,-118.0094182,Vape Genie Wholesale & Distribution,11652 Knott Ave F-5 Garden Grove CA 92841 United States,vape
ChIJYXdJP40m3YAR7jJj8V1nv7I,33.743111,-118.034175,West Coast Vape Supply,5445 Oceanus Dr #102 Huntington Beach CA 92649 USA,vape
ChIJ6c8hTzX_jYARUNogSPd9Seo,36.6948994,-121.652109,Vape3one,1055 N Main St Salinas CA 93906 USA,vape
ChIJZwq_nKnx7IARHjRC-5NpvoE,35.2906779,-120.6595672,Royal Smoke and Vape,592 California Blvd San Luis Obispo CA 93401 USA,vape
ChIJyaDZDZnAlIARUpK2kIF1nsA,36.3077975,-119.7813377,The GreenMile Vape & Smoke Shop,855 N Lemoore Ave # 130 Lemoore CA 93245 USA,vape
ChIJbesBBatu6oARsOSGj1yMgLU,35.39281,-118.950422,Deluxe Tobacco & Vape,2600 Oswell St ste j Bakersfield CA 93306 USA,vape
ChIJAQAwOPXH6oARySKIAf2g96I,36.0654123,-119.0475838,z's smoke shop & vapes,1365 W Olive Ave f Porterville CA 93257 USA,vape
ChIJYZfg0H9r7IARA100pCZ_wbM,34.9485828,-120.4363132,Amsterdam Lounge & Smoke Shop,437 S Broadway Santa Maria CA 93458 USA,vape
ChIJvd3gLmAZ7IARfIzLaFg9I-Y,34.6911204,-120.4363626,Hi time tobacco,1430 Burton Mesa Blvd Lompoc CA 93436 USA,vape
ChIJj3CSMmBr7IARyXF9lhJEyfQ,34.932868,-120.436559,Royal smoke and vape,1531 S Broadway ste A Santa Maria CA 93454 USA,vape
ChIJj8V4w35HwoARf_Wt29WiMEk,34.8595231,-118.1629501,Vape And Bake,2689 Sierra Hwy Rosamond CA 93560 USA,vape
ChIJJcNTFYI4woARnfQck5QC6_Y,34.8640333,-118.1663719,High Desert Vapor,2997 Desert St Rosamond CA 93560 USA,vape
ChIJq6r6rO1jw4ARpg5gq_2bGcc,34.5330899,-117.253135,Dripstick Vape,18835 Chapae Ln Apple Valley CA 92307 USA,vape
ChIJBaBU6H17xIARqrHKDwXvzuU,34.899026,-117.025531,Smoked Out Smoke Shop & Vape,215 E Main St Barstow CA 92311 USA,vape
ChIJU3lF46F8xIARAmI2OETLDEA,34.897639,-117.008494,So*Cal Smoke & Vape Shop,1251 E Main St #8 Barstow CA 92311 USA,vape
ChIJn0kLIlhmw4ARvVpSehOIvdo,34.4700052,-117.3161223,Vape Shop,Hesperia CA 92345 USA,vape
ChIJSUvl2a1P6IARma194314W_o,34.1479313,-119.1949022,Vapor Forrest,425 E Port Hueneme Rd Port Hueneme CA 93041 USA,vape
ChIJP9qVmMC1woARnKg2B6EPidE,33.9015976,-118.3021778,Vape In The Box,1448 W Rosecrans Ave Gardena CA 90249 USA,vape
ChIJhe2eGXC7woARjKVqeXmrXJI,34.045799,-118.450795,Apollo Vapor store • USA portable dry herbs vaporizers • Los Angeles online best sale shop near me,11400 W Olympic Blvd #267 Los Angeles CA 90064 USA,vape
ChIJ7_ZSNyQo6IARZpOxUXSdCJE,34.2716705,-118.6800831,Simi Vapor,5716 E Los Angeles Ave Simi Valley CA 93063 USA,vape
ChIJYVForeYu6IARLMaUn8kCNHo,34.2616858,-118.7946734,HOOKAH VALLEY,1230 Madera Rd #3 Simi Valley CA 93065 USA,vape
ChIJJ74X-S61woAR6iAJtSGl4zI,33.846716,-118.3376624,XL Vape,2807 Oregon Ct Torrance CA 90503 USA,vape
ChIJ__-PJE3GwoAR2fvSyEHufpA,34.053435,-118.251403,neuro vape,255 S Grand Ave Los Angeles CA 90012 USA,vape
ChIJZ5yJ7j0z3YAR4PKK4BCwV9A,33.8599896,-118.1755875,B&M Vape & Cigars,Long Beach CA 90805 USA,vape
ChIJ4WY3yGRK3YARCx8nJHjWrSg,33.7983428,-118.311718,Let's Vape Inc,1886 Lomita Blvd c Lomita CA 90717 USA,vape
ChIJB2TaUe8l3YAR-UslVRtA0pg,33.7359315,-118.0310179,USA Vape Lab,15572 Commerce Ln Huntington Beach CA 92649 USA,vape
ChIJRaw7YDfR3IARidHTMvT3VqE,33.8607758,-117.8194789,Abstrakt Vape Co.,1241 N Lakeview Ave ste d Anaheim CA 92807 USA,vape
ChIJXbhqTW8g3YAR4FTGBB3R2xo,33.6382356,-117.9425488,Vape Goddess,1011 Brioso Dr Costa Mesa CA 92627 USA,vape
ChIJw7yrVKUy3YARuvg7iu35Kpo,33.8819361,-118.123957,LA Vape Company,9836 Flower St Bellflower CA 90000 USA,vape
ChIJy-kBCF_V3IAR_bp3OuGFkpo,33.9241233,-117.9227208,Vape Bartender,2120 E Lambert Rd Suite #A La Habra CA 90631 USA,vape
ChIJpRfr8NYr3YAROlGPR1-RBOA,33.8488406,-117.9797157,Vape Bums Supply Co.,1169 N Knollwood Cir Anaheim CA 92801 USA,vape
ChIJT1WRQNxp6oAR9pTmXx7cYN0,33.714913,-117.796385,Luxor Vape Distro,51 Peters Canyon Rd Irvine CA 92606 USA,vape
ChIJl6QRp2cr3YARPDCHCepYMUQ,33.8974345,-118.0088613,Vape Nation,15086 Rosecrans Ave La Mirada CA 90638 USA,vape
ChIJ8TmFUVu33IARortLpBfRcR0,33.8967312,-117.4726677,Landslide Vape - Online Only,3410 La Sierra Ave Unit 161 Riverside CA 92503 USA,vape
ChIJN-8DMK5E24ARcXgLXpgls3M,33.931761,-116.976775,Smoke & Vape,754 Beaumont Ave Beaumont CA 92223 USA,vape
ChIJK-P73vNW24AR9QJOLHifv6M,34.0282772,-117.1189142,Smoke Smart Vape Shope,Hampton Rd Yucaipa CA 92399 USA,vape
ChIJm7xWFEWv3IARntfwg5t94tw,33.9451976,-117.2794192,Vape Shop:Vapor Boss,12125 Day St J303 Moreno Valley CA 92557 USA,vape
ChIJjUzQUYNNw4ARDBTAoteI30A,34.1226984,-117.3733339,Rialto Smoke And Vape,222 W Baseline Rd Rialto CA 92376 USA,vape
ChIJb5K6HdpUw4ARZobvo8rxHGI,34.121928,-117.226504,IE Smoke Shop,26498 Base Line St Ste D Highland CA 92346 USA,vape
ChIJiXPDtgWl3IARFYiXAd_ctxI,33.8897634,-117.3222752,Rize Vapor,19510 Van Buren Boulevard F3-130 Riverside CA 92508 USA,vape
ChIJ398YQIpRw4ARwzj27MZCO7M,34.169092,-117.333937,Daniel's Smoke Shop,4434 University Pkwy i San Bernardino CA 92407 USA,vape
ChIJNZJFpIJE24ARJiy9_s4Q-Dw,33.92811,-116.9492475,Smokey's Smoke Shop,1671 E 6th St Beaumont CA 92223 USA,vape
ChIJX7D7oETH2oAR2fG_qu7fbxc,34.1511281,-116.0544719,Next Level Vaping No.2,5653 Plaza Rd Twentynine Palms CA 92277 USA,vape
ChIJcV4Ql2_H2oAROOZEYZGpXzg,34.1649904,-116.0544466,Alien vapory,4890 Adobe Rd Twentynine Palms CA 92277 USA,vape
ChIJSWaonZrH2oARyEudcwifulc,34.1872436,-116.0552327,my vape life,3668 Adobe Rd Twentynine Palms CA 92277 USA,vape
ChIJQX4T0kg50YARjnwD9mU5EBA,33.6105374,-114.5976417,Steve's Smoke Shop,409 Hobsonway Blythe CA 92225 USA,vape
ChIJ2zwRcYlx3IARWqvN68wR3mk,33.1781956,-117.3308209,Aroma Avenue Vape,2525 El Camino Real Carlsbad CA 92008 USA,vape
ChIJ-WcjWe0L3IAR9z7Zhm-NK_E,33.046655,-117.2556756,South Coast Vapor Co.,1532 Encinitas Blvd Encinitas CA 92024 USA,vape
ChIJ65RPdCcA3IARjJEGRLowvuE,32.7889994,-117.2056515,Vape & Smoke Shop Universe,2525 Morena Blvd San Diego CA 92110 USA,vape
ChIJ8W_oX1jx24ARG96vUhoOIws,33.071445,-117.066738,Vape Avenue Escondido,272 E Via Rancho Pkwy Escondido CA 92025 USA,vape
ChIJ5WP312Lo3IAR_XUoTRs9u88,33.6220358,-117.7248908,Kingdom Elixir,23182 Alcalde Dr f Laguna Hills CA 92653 USA,vape
ChIJcVqe2X5Q2YARj1i17eX-YWo,32.731719,-116.972414,Vaping Veteran's Supplies LLC,10174 Austin Drive BOX 1333 Spring Valley CA 91977 United States,vape
ChIJU1C86e5W2YARaeO4YB_LhOQ,32.768407,-117.047928,Illusions Smoke Shop,6957 El Cajon Blvd #101 San Diego CA 92115 USA,vape
ChIJ81eDOwDm24ARTwWj-sI2RZU,33.027796,-116.8891505,main smoke shop,2330 Main St g Ramona CA 92065 USA,vape
ChIJ_aXaDt503IAR4ykxrFhyGTU,33.1366512,-117.2260421,yougotejuice.com,1485 Poinsettia Ave Ste 112 Vista CA 92081 USA,vape
ChIJd8diaMfs0lQR8v1QbAxtWGo,40.5702936,-122.338268,Golden State Vapor,2537 Victor Ave Redding CA 96002 USA,vapor
ChIJAQDAS8De3IARijzEVSvT5F4,33.692034,-117.857375,Verdict Vapors,17865 Sky Park Cir Irvine CA 92614 USA,vapor
ChIJk7TsXHqej4ARJmBcRndlT-Q,37.566682,-122.320407,The Zone Smoke Shop and Vapor,516 E 3rd Ave San Mateo CA 94401 USA,vapor
ChIJN-6wlVw0joARaWPpyuDM2yo,37.26145,-121.929059,us vapor mods,14938 Camden Ave San Jose CA 95124 USA,vapor
ChIJTXHo0lddlIARtg8VRAwwTaw,36.8272591,-119.7883354,High Stakes Vapor (by appointment only),90 E Escalon Ave #112 Fresno CA 93710 USA,vapor
ChIJY3vlojfGwoARcSrKzUSLtK0,34.045791,-118.242423,US Vape Wholesale - Vapor Wholesale Supply,413 E 4th St Los Angeles CA 90013 USA,vapor
ChIJ20HmrPJClIAR3jxOmiDPGTw,36.870825,-119.765659,Glass Lab @ Champlain,1097 E Champlain Dr Fresno CA 93720 USA,vapor
ChIJ2Y6R7JvY3IAR11BGiREvTkI,33.7235102,-117.9177411,E-Juice Vapor,16520 Harbor Blvd Fountain Valley CA 92708 USA,vapor
ChIJpfsA-eUu6IARRLbuU0vU6sI,34.2660541,-118.7954979,Cloud10 Vapor Bar,1464 Madera Rd L Simi Valley CA 93065 USA,vapor
ChIJ1QKc0kjBwoARXSfPipw6Jco,34.140914,-118.224856,Simply Vapor,2700 Colorado Blvd Eagle Rock Plaza Next To Game Stop Los Angeles CA 90041 United States,vapor
ChIJE4ipK6dU2YARcvGw7Q4LH7M,32.7183465,-117.1560789,Vapor High USA,1281 Ninth Ave #704 San Diego CA 92101 USA,vapor
ChIJy1Rl4jjBwoARlgflsyyL7Q0,34.1254353,-118.2321495,Vida Cali Vapor,4115 Verdugo Rd Los Angeles CA 90065 USA,vapor
ChIJbcOaJMXQwoARB4yjk609RCM,34.0490428,-118.0332027,Steep Vapors,11135 Rush St South El Monte CA 91733 USA,vapor
ChIJq6qqqi60woARwOHvVGEJAro,33.9127807,-118.3520389,Vapor Rejuvination Therapy,Hawthorne CA 90250 USA,vapor
ChIJVVUZyN3b3IARURC1nnEfHdE,33.74186,-117.8238962,Blaq Vapor,100 W Main St Tustin CA 92780 USA,vapor
ChIJt4FG-zHWwoARYX1mq2e-bv8,34.056263,-117.937062,Orgazmic Vapor,1104 Wescove Pl West Covina CA 91790 USA,vapor
ChIJ1Y4Jkk_d3IARMpY3CTyB_TQ,33.6669749,-117.7483248,Sugoi Vapor,208 Technology Dr #M Irvine CA 92618 United States,vapor
ChIJRdT3_4wu3YARkvAXHOvXJM0,33.8088467,-118.056801,Vapor Gauge Inc,10572 Calle Lee # 128 Los Alamitos CA 90720 USA,vapor
ChIJ-2Ulx55y3YAREOKrRrEEfbQ,33.3439328,-118.3270559,Inno-Vapor Digital,161 Metropole Ave Avalon CA 90704 USA,vapor
ChIJy3KR6EnGwoARzYS38zj3nBg,34.1719119,-118.4393722,Vapers Wholesale Sherman Oaks,14048 Burbank Blvd Sherman Oaks CA 91401 USA,vaper
ChIJgab2XMPQmoARQoatIHC2Ac0,38.5679864,-121.4645234,Built to Win,3241 Folsom Blvd Sacramento CA 95816 USA,vaper
ChIJz3S-PLnGmoAR9tGEYwoB_DI,38.4539454,-121.3701765,G Vapers,8359 Elk Grove Florin Rd #103 Sacramento CA 95829 USA,vaper
ChIJTV7uU9XEwoARzW52VIfJkaM,34.1009175,-118.1125712,Arowana Vaper,849 Padilla St San Gabriel CA 91776 USA,vaper
ChIJpRWMA9Qz3YARRmT7qNiZZfE,33.8049816,-118.1645915,Vapers Choice Cotton,2201 E Willow St D 227 Signal Hill CA 90755 USA,vaper
ChIJzwiIYVTf3IARLKHBiwlg6Wo,33.6925014,-117.9206796,Select Vape,F6 3303 Harbor Blvd Costa Mesa CA 92626 United States,vaper
ChIJUwcdb6pTm4ARacy0cRGkIO4,39.128015,-121.581585,Smoke Shop,937 N Beale Rd # B Marysville CA 95901 USA,vaping
ChIJVZSXAAwnm4ARXg3vAyn5q7M,38.7137953,-121.3940759,Blaze Smoke Shop,7943 Watt Ave Antelope CA 95843 USA,vaping
ChIJcT_Mm8mAhYARnYu60P_HmGY,37.7867895,-122.4399268,Sam's Smoke Shop,1838 Divisadero St San Francisco CA 94115 USA,vaping
ChIJZTbF2L0vlYARX7xhHuYhhh0,36.3244334,-119.2610111,Visalia Smoke Shop,645 Lovers lane Visalia CA 93292 USA,vaping
ChIJIybzIlhmw4AR1rxSZ5CXLs8,34.4728623,-117.2929334,Mobile Vape Smoke Shop,12186 Hesperia Rd Victorville CA 92395 USA,vaping
ChIJV8w4VTu_woARGiAw5u9pQY8,34.101392,-118.334424,Ignite Smoke Shop & Vape Shop,6630 Hollywood Blvd #A Los Angeles CA 90028 United States,vaping
ChIJMY7h_GzV3IARrax3nHAhaHE,33.9241233,-117.9227208,Vape Bartender,2120 E Lambert Rd La Habra CA 90631 USA,vaping
ChIJvaNpPCqm3IARQAjrhVi5xiE,33.9435304,-117.2259957,Supreme Gallery Smoke & Vape,12190 Perris Blvd ste j Moreno Valley CA 92557 USA,vaping
ChIJBX6I3t5z3IARLyN3myDzAYg,33.1809907,-117.2956705,Hydra Lifestyle,3504 College Blvd Oceanside CA 92056 USA,vaping
ChIJVVVJNu9V2YARPTIMIONOPIo,32.79907,-117.0927734,vincere vape,6902 Mission Gorge Rd San Diego CA 92120 USA,vaping
ChIJ8dIuClT624AROJJcb5Nlu18,32.9571464,-117.0380837,Poway Smoke Shop,13524 Poway Rd Poway CA 92064 USA,vaping
ChIJf1Zwg8uWj4ARQlV76A-GFU8,37.6341175,-122.1108775,Best Choice Electronic Cigarettes | e-Cigarettes,26250 Industrial Blvd Hayward CA 94545 USA,electronic+cigarette
ChIJG0Sge-OZwoARta-yASm_3p0,34.1979771,-118.4922144,T T Zig Electronic Cigarette,7020 Hayvenhurst Ave Van Nuys CA 91406 USA,electronic+cigarette
ChIJS8iJs_y7woAReF1b2TCKhAY,34.06037,-118.397694,Ophis Vape, Electronic Cigarette Wholesaler,350 S Reeves Dr #203 Beverly Hills CA 90212 USA,electronic+cigarette
ChIJJy5bY3e7woAR3dMTy21K5mU,34.0484048,-118.4433859,CITIZEN ELECTRONIC CIGARETTE,11041 California State Route 2 #707 Los Angeles CA 90025 USA,electronic+cigarette
ChIJjf1SdkQO1FQRBU7vAY-fCWk,40.597787,-124.155734,Top Digital Cigs - The Electronic Cigarette Super Store,1049 Main St Fortuna CA 95540 USA,electronic+cigarette
ChIJa9OMO-z_01QRWMA025HbHHg,40.7826333,-124.1650534,Cigarettes Cheaper,2810 E St Eureka CA 95501 USA,electronic+cigarette
ChIJJdQrddWbgYARNT2nTU50_FY,39.3926902,-123.3472329,Dabworks LLC,1611 S Main St a Willits CA 95490 USA,electronic+cigarette
ChIJ384bJE8o6IAReupXqKfRQjE,34.2712796,-118.7032445,Vaporizer Merchant Accounts,4680 E Los Angeles Ave Simi Valley CA 93063 USA,electronic+cigarette
ChIJZ5TGBTcw3YARDj6Vj74lfnc,33.758867,-118.13231,My Best E-Cigarette Reviews,5318 E 2nd St #352 Long Beach CA 90803 USA,electronic+cigarette
ChIJpS60CuyBt4cRvyAZ3cUUPBw,34.2138624,-118.4960863,VERO eCig,7850 Ruffner Ave Van Nuys CA 91406 USA,electronic+cigarette
ChIJt4FG-zHWwoARyOYN_Cf6KQ0,34.056263,-117.937062,Milkeebunz,1104 Wescove Pl West Covina CA 91790 USA,electronic+cigarette
ChIJIxBXzjF-24AR_ZGl_Y8ZzWs,33.5133274,-117.1609287,Smokeless Selects Electronic Cigarettes and Cigars,27576 Commerce Center Dr Temecula CA 92590 USA,electronic+cigarette
