id,lat,long,name,address,category,zip,phone,closed
broadway-smoke-shop-and-accessories-los-angeles,34.045769674,-118.252720152,Broadway Smoke Shop & Accessories,624 S Broadway Los Angeles CA 90014,tobaccoshops vapeshops,90001,+12136222825,False
the-vapor-shop-vape-bar-and-vape-lounge-los-angeles-5,34.06204,-118.3133,The Vapor Shop - Vape Bar and Vape Lounge,3959 Wilshire Blvd Ste 13-B Los Angeles CA 90010,vapeshops tobaccoshops,90001,+14248889617,False
the-vape-shop-los-angeles-4,34.07386,-118.309486,The Vape Shop,125 N Western Ave Ste 104 Los Angeles CA 90004,vapeshops,90001,+13234969288,False
doux-vape-los-angeles-3,34.028641,-118.2755203,Doux Vape,2508 S Figueroa St Los Angeles CA 90007,vapeshops,90001,+12137440789,False
vapor-range-gardena,33.8932789,-118.3091306,Vapor Range,15210 S Western Ave Gardena CA 90249,vapeshops,90001,+13108178088,False
yassa-smoke-shop-los-angeles-11,34.0237645,-118.1872831,Yassa Smoke Shop,3956 Whittier Blvd Los Angeles CA 90023,tobaccoshops vapeshops headshops,90001,+13232633868,False
the-smoke-shop-los-angeles-5,34.06204,-118.3133,The Smoke Shop,3959 Wilshire Blvd Ste 13 Los Angeles CA 90010,vapeshops tobaccoshops,90001,+14248889617,False
a2z-smoke-shop-los-angeles-5,34.0703476047,-118.292121849,A2Z Smoke Shop,213 S Vermont Ave Los Angeles CA 90004,tobaccoshops vapeshops headshops,90001,+12133839500,False
the-candy-bar-hookah-shoppe-los-angeles,33.9584346,-118.3939655,The Candy Bar Hookah Shoppe,6208 W 87th St Los Angeles CA 90045,hookah_bars vapeshops headshops,90001,+13106700708,False
vape-guys-gardena-2,33.8876911123,-118.314139568,Vape Guys,2015 W Redondo Beach Blvd Ste E Gardena CA 90247,vapeshops,90001,+13233314092,False
golden-state-vape-shop-los-angeles,34.0699327,-118.2658958,Golden State Vape Shop,1925 W Temple St Unit 112 Los Angeles CA 90026,vapeshops,90001,+12139896903,False
the-smoke-and-vape-depot-los-angeles,34.0704281,-118.3615349,The Smoke and Vape Depot,353 S Fairfax Ave Los Angeles CA 90036,vapeshops tobaccoshops headshops,90001,+13237465055,False
angies-boutique-los-angeles-2,34.0633083,-118.2376693,Angie's Boutique,838 N Broadway Los Angeles CA 90012,tobaccoshops vapeshops,90001,+12136800080,False
arabian-nights-vape-and-smoke-shop-hookah-and-cigar-lounge-los-angeles,34.0244073,-118.2782164,Arabian Nights Vape & Smoke Shop, Hookah & Cigar Lounge,3014 S Figueroa St Los Angeles CA 90007,hookah_bars tobaccoshops vapeshops,90001,+12134934326,False
cc-smoke-shop-culver-city,34.0035701,-118.3935351,Cc Smoke Shop,10734 Jefferson Blvd Culver City CA 90230,vapeshops headshops,90001,+13105588010,False
vapor-delight-los-angeles-4,34.07299,-118.37539,Vapor Delight,8474 W 3rd St Los Angeles CA 90048,vapeshops,90001,+13234529880,False
downtown-vape-electronic-cigarettes-los-angeles-3,34.0374374,-118.2588698,Downtown VAPE Electronic Cigarettes,117 E12th St Los Angeles CA 90015,vapeshops,90001,+12137477252,False
casa-de-vape-south-gate-3,33.9428867354,-118.19477954,Casa De Vape,4386 Tweedy Blvd South Gate CA 90280,vapeshops,90001,+13232490114,False
rc-smoke-shop-and-vape-downey,33.9404476,-118.1548488,RC Smoke Shop & Vape,7352 Stewart And Gray Rd Downey CA 90241,vapeshops tobaccoshops,90001,+15622255504,False
la-meds-4-less-los-angeles,34.0256790477,-118.240312155,LA Meds 4 Less,1720 E 14th St Ste A Los Angeles CA 90021,headshops cannabisdispensaries vapeshops,90001,+12137449474,False
stogz-los-angeles,34.078,-118.37619,Stogz,372 N La Cienega Blvd Los Angeles CA 90048,tobaccoshops vapeshops,90001,+13102898080,False
beverly-vapes-los-angeles,34.0763931274,-118.364494324,Beverly Vapes,8023 Beverly Blvd Ste 5 Los Angeles CA 90048,vapeshops,90001,+13239510067,False
e-cig-city-commerce-commerce-2,34.003189,-118.166763,E-Cig City Commerce,5211 E Washington Blvd Ste 10 Commerce CA 90040,vapeshops,90001,+13233182477,False
i-smoke-4-less-los-angeles-3,33.97663,-118.37328,I smoke 4 less,6843 La Tijera Blvd Los Angeles CA 90045,vapeshops tobaccoshops headshops,90001,+14243518374,False
001-smoke-shop-los-angeles,34.0821350038,-118.272136594,001 Smoke Shop,2815 W Sunset Blvd Ste 107 Los Angeles CA 90026,tobaccoshops vapeshops,90001,+12134830440,False
manhattan-beach-smoke-shop-manhattan-beach,33.8857281403,-118.378656722,Manhattan Beach Smoke Shop,1005 N Aviation Blvd Manhattan Beach CA 90266,tobaccoshops headshops vapeshops,90001,+13107989966,False
elite-smoke-shop-los-angeles-4,34.072365,-118.369731,Elite Smoke Shop,8250 W 3rd St Ste 106 Los Angeles CA 90048,tobaccoshops vapeshops electronics,90001,+13237829394,False
kalari-vapor-los-angeles-2,34.02512,-118.27158,Kalari Vapor,2641 S Hill St Los Angeles CA 90007,vapeshops,90001,+12137491430,False
infeeling-los-angeles-4,34.0569934,-118.3086149,Infeeling,808 S Western Ave Ste 101 Los Angeles CA 90005,vapeshops,90001,+12133650016,False
vicious-vapor-lounge-torrance,33.8825530689,-118.325936,Vicious Vapor Lounge,16300 Crenshaw Blvd Ste 103 Torrance CA 90504,vapeshops,90001,+14242448273,False
i-smoke-4-less-los-angeles,34.0216445619,-118.371978645,I Smoke 4 Less,5786 Rodeo Rd Los Angeles CA 90016,tobaccoshops vapeshops,90001,+13237924509,False
ms-kittys-smokeshop-inglewood,33.9616551,-118.3500954,Ms Kitty's Smokeshop,412 E Manchester Blvd Inglewood CA 90301,vapeshops headshops,90001,+13107474884,False
vapeguyla-gardena,33.90242,-118.26566,Vapeguyla,545 E Rosecrans Ave Gardena CA 90248,vapeshops,90001,+15626768099,False
kookoo-smokes-lennox-2,33.9384536743,-118.353927612,Kookoo Smokes,4435 Lennox Blvd Lennox CA 90304,tobaccoshops vapeshops,90001,+13107354211,False
brazil-discount-tobacco-los-angeles-4,34.0777054,-118.2637584,Brazil Discount Tobacco,2107 W Sunset Blvd Los Angeles CA 90026,tobaccoshops vapeshops headshops,90001,+12133536122,False
tobacco-4-less-inglewood-4,33.9358139312,-118.326635308,Tobacco 4 Less,10925 Crenshaw Blvd Ste 103 Inglewood CA 90303,vapeshops tobaccoshops headshops,90001,+14243518435,False
lynwood-smokes-and-snacks-lynwood,33.9276257,-118.1851137,Lynwood Smokes & Snacks,11111 Atlantic Ave Lynwood CA 90262,headshops tobaccoshops vapeshops,90001,+13109338143,False
smoke1-smoke-shop-los-angeles,34.02711,-118.29115,Smoke1 Smoke Shop,3010 S Vermont Ave Los Angeles CA 90007,tobaccoshops vapeshops headshops,90001,+13235281024,False
vaper-dadz-whittier,34.0204555425,-118.158424377,Vaper Dadz,11244 E Whittier Blvd Whittier CA 90606,vapeshops,90001,+15625479835,False
la-vape-and-smoke-shop-los-angeles,34.0400390625,-118.254562378,La Vape and Smoke Shop,926 S Los Angeles St Ste 8 Los Angeles CA 90015,vapeshops,90001,+12136220756,False
price-check-los-angeles,34.045895,-118.243951,Price Check,305 E 4th St Los Angeles CA 90013,tobaccoshops vapeshops,90001,+12136131211,False
la-vaporz-wholesale-los-angeles,34.04532,-118.24363,LA VAPORZ Wholesale,417 South San Pedro St Los Angeles CA 90013,vapeshops,90001,+18003508273,False
a-and-z-smoke-shop-los-angeles,34.07664,-118.28716,A & Z Smoke Shop,301 N Virgil Ave Los Angeles CA 90004,tobaccoshops vapeshops,90001,+13236630137,False
sharifs-smoke-shop-inglewood,33.9618247747,-118.356740847,Sharif's Smoke Shop,151 W Manchester Blvd Inglewood CA 90301,tobaccoshops vapeshops headshops,90001,+13104387064,False
karas-market-and-tobacco-store-gardena,33.9012919857,-118.300071806,Karas Market & Tobacco Store,1332 W Rosecrans Ave Gardena CA 90247,vapeshops tobaccoshops convenience,90001,+13104065299,False
the-wall-street-vape-supply-co-los-angeles,34.04692,-118.24419,The Wall Street Vape Supply Co,330 Wall St Los Angeles CA 90013,vapeshops,90001,+12136283836,False
beverlywood-tobacco-los-angeles,34.053511,-118.383549,Beverlywood Tobacco,1434 S Robertson Blvd Los Angeles CA 90035,tobaccoshops vapeshops,90001,+13102470465,False
lindys-liquor-warehouse-inglewood,33.927544,-118.378077,Lindy's Liquor Warehouse,11720 Aviation Blvd Inglewood CA 90304,beer_and_wine vapeshops,90001,+13106436472,False
buzz-r-us-los-angeles-2,34.08328,-118.34932,Buzz"R"us,7318 Melrose Ave Ste C Los Angeles CA 90046,tobaccoshops headshops vapeshops,90001,+13239342899,False
jay-jay-smoke-and-gift-shop-cudahy-2,33.9653145,-118.1871173,Jay Jay Smoke & Gift Shop,7705 Atlantic Ave Ste C Cudahy CA 90201,vapeshops tobaccoshops,90001,+13234849314,False
lime-star-tobacco-torrance-2,33.8718757629,-118.325874329,Lime Star Tobacco,17430 Crenshaw Blvd Ste C Torrance CA 90504,tobaccoshops vapeshops,90002,+13105386820,False
prestige-smoke-and-vape-torrance,33.8765519004,-118.345415377,Prestige Smoke and Vape,4068 Redondo Beach Blvd Torrance CA 90504,tobaccoshops vapeshops,90002,+13105427000,False
boxmodz-vape-supplies-long-beach,33.87835,-118.17991,Boxmodz VAPE Supplies,6802 Lewis Ave Long Beach CA 90805,vapeshops,90002,+15624809927,False
biohazard-smoke-shop-downey-2,33.9311673,-118.1470453,Biohazard Smoke Shop,12121 Paramount Blvd Downey CA 90242,tobaccoshops vapeshops headshops,90002,+15628696030,False
smoke-for-less-compton,33.887154,-118.250314,Smoke For Less,909 S Central Ave Compton CA 90220,tobaccoshops vapeshops,90002,+13106041971,False
cherry-smoke-shop-long-beach-8,33.8668313,-118.1688667,Cherry Smoke Shop,6169 Cherry Ave Long Beach CA 90805,vapeshops headshops tobaccoshops,90002,+15623674573,False
friends-tobacco-and-more-gardena,33.901564186,-118.29373911,Friends Tobacco & More,1094 W Rosecrans Ave Gardena CA 90247,vapeshops tobaccoshops headshops,90002,+14242669630,False
asmodus-paramount-2,33.887897,-118.1511951,asMODus,15962 Downey Ave Paramount CA 90723,vapeshops wholesale_stores,90002,+15624080888,False
as-smoke-and-vape-shop-bellflower,33.8881086518,-118.142960072,A's Smoke & Vape Shop,16111 Lakewood Blvd Bellflower CA 90706,headshops vapeshops,90002,+15622063422,False
serenity-smoke-shop-long-beach,33.874965,-118.159646,Serenity Smoke Shop,2801 E Artesia Blvd Ste A Long Beach CA 90805,tobaccoshops vapeshops headshops,90002,+15624706611,False
maywood-tobacco-maywood-2,33.988164842,-118.192998022,Maywood Tobacco,4037 Slauson Ave Maywood CA 90270,vapeshops tobaccoshops headshops,90002,+13235539465,False
puff-n-stuff-depot-smoke-shop-los-angeles,33.96058,-118.30007,Puff N Stuff Depot Smoke Shop,8500 S Normandie Ave Los Angeles CA 90044,tobaccoshops vapeshops,90002,+13237505100,False
smokers-paradise-los-angeles-2,33.9168015,-118.2818909,Smoker's Paradise,417 W El Segundo Blvd Los Angeles CA 90061,vapeshops,90002,+14242440725,False
tropicana-vape-shop-los-angeles,34.1883392334,-118.388198853,Tropicana Vape Shop,6461 Lankershim Blvd Los Angeles CA 91606,vapeshops tobaccoshops mobilephonerepair,90002,+18182328810,False
tobacco-and-stuff-smoke-shop-paramount,33.889729,-118.15016,Tobacco & Stuff Smoke Shop,8527 Alondra Blvd Ste 137 Paramount CA 90723,tobaccoshops vapeshops,90002,+15626307771,False
vip-tobacco-and-cigars-gardena,33.8856251,-118.3181378,VIP Tobacco & Cigars,2211 W Redondo Beach Blvd Gardena CA 90247,tobaccoshops vapeshops headshops,90002,+13105321225,False
gardena-cigarettes-and-cigars-gardena,33.8918838501,-118.300033569,Gardena Cigarettes & Cigars,1367 W Redondo Beach Blvd Gardena CA 90247,tobaccoshops vapeshops,90002,+13105151828,False
sams-smoke-shop-hawthorne,33.9066776728,-118.36159531,Sam's Smoke Shop,13737 S Inglewood Ave Unit  101 Hawthorne CA 90250,tobaccoshops vapeshops,90003,+13107425701,False
alchemy-lounge-los-angeles,34.03986,-118.26721,Alchemy Lounge,604 W Pico Blvd Los Angeles CA 90015,venues vapeshops,90003,+12139844440,False
city-of-vape-los-angeles,34.0473,-118.24383,City of Vape,307 Boyd St Los Angeles CA 90013,vapeshops,90003,+12136281230,False
value-and-more-los-angeles,34.047172,-118.243453,Value and More,311 E Boyd St Los Angeles CA 90013,vapeshops,90003,+12136283210,False
shisha-a-to-z-los-angeles,34.0472723,-118.2427262,Shisha A to Z,312 E 3rd St Los Angeles CA 90013,tobaccoshops headshops vapeshops,90003,+12132657171,False
cali-kulture-los-angeles,34.0477556,-118.2437902,Cali Kulture,306 S Wall St Los Angeles CA 90013,tobaccoshops vapeshops,90003,+18559992254,False
e-juice-la-los-angeles,34.0470924377,-118.244537354,E-Juice LA,339 Wall St Ste G Los Angeles CA 90013,vapeshops,90003,+12136283779,False
gift-and-tobacco-hawthorne,33.9174232483,-118.352104187,Gift and Tobacco,12620 Hawthorne Blvd Ste C Hawthorne CA 90250,tobaccoshops giftshops vapeshops,90003,+13109731262,False
ik-smoke-shop-los-angeles,34.058509,-118.308555,IK Smoke Shop,730 S Western Ave Unit 105 Los Angeles CA 90005,vapeshops,90004,+12132632066,False
smoke-heaven-los-angeles,34.063721,-118.3008738,Smoke Heaven,3609 W 6th St Los Angeles CA 90020,vapeshops tobaccoshops,90004,+12136747266,False
smoke-shop-of-hollywood-los-angeles,34.0826380055,-118.291524262,Smoke Shop of Hollywood,628 N Vermont Ave Ste 2 Los Angeles CA 90004,vapeshops tobaccoshops,90004,+13239282463,False
los-angeles-vape-shop-los-angeles,34.09095,-118.30889,Los Angeles Vape Shop,1100 N Western Ave Ste 103 Los Angeles CA 90029,vapeshops,90004,+13236457999,False
sphinx-smoke-and-vape-shop-los-angeles-4,34.0691749,-118.2933999,Sphinx Smoke & Vape Shop,3559 W 3rd St Los Angeles Ca 1/2 Los Angeles CA 90020,tobaccoshops vapeshops headshops,90004,+12132632551,False
m-g-smokeshop-los-angeles,34.08052,-118.26991,M G Smokeshop,2607 W Sunset Blvd Los Angeles CA 90026,tobaccoshops vapeshops,90006,+12134830270,False
la-casa-del-tabaco-los-angeles,34.059856,-118.275243,La Casa Del Tabaco,2133 W 6th St Los Angeles CA 90057,vapeshops tobaccoshops giftshops,90006,+12135683695,False
mob-city-vape-los-angeles-3,34.0521158869,-118.244540799,Mob City Vape,Los Angeles CA,vapeshops,90006,+13236802226,False
samart-smoke-and-vape-shop-los-angeles,34.0620051,-118.3392183,SamArt Smoke & Vape Shop,5032 Wilshire Blvd Los Angeles CA 90036,vapeshops,90006,+13237465222,False
smoke-for-less-west-hollywood-8,34.091073,-118.367701,Smoke for Less,8205 Santa Monica Blvd Ste 2 West Hollywood CA 90046,tobaccoshops vapeshops,90008,+13238222954,False
the-vapor-spot-los-angeles,34.0408672,-118.428927,The Vapor Spot,2378 Westwood Blvd Los Angeles CA 90064,vapeshops,90008,+13102809652,False
nanas-vape-shop-culver-city-2,34.0149498886,-118.407369134,Nana's Vape Shop,10812 Washington Blvd Culver City CA 90232,vapeshops,90008,+13107362247,False
la-cloud-supply-los-angeles-2,34.0385246277,-118.431175232,LA Cloud Supply,10956 Pico Blvd Los Angeles CA 90064,vapeshops tobaccoshops headshops,90008,+14242932486,False
nirvana-smoke-and-vape-culver-city-7,34.01497,-118.40714,Nirvana Smoke & Vape,10800 Washington Blvd Culver City CA 90232,tobaccoshops vapeshops headshops,90008,+13105599420,False
del-rey-smoke-stacks-los-angeles,33.99269,-118.42347,Del Rey Smoke Stacks,4503 Centinela Ave Los Angeles CA 90066,tobaccoshops vapeshops headshops,90008,+14242899474,False
cig-zone-los-angeles-4,34.02602,-118.4271,Cig Zone,3130 S Sepulveda Blvd Los Angeles CA 90034,tobaccoshops vapeshops headshops,90008,+13104774229,False
el-segundo-vapery-el-segundo-2,33.9305018,-118.4162663,El Segundo Vapery,100 W Imperial Ave Ste E El Segundo CA 90245,vapeshops headshops,90008,+14243627242,False
teagardins-west-hollywood-6,34.08927,-118.37746,Teagardins,8531 Santa Monica Blvd West Hollywood CA 90069,vapeshops headshops,90008,+13108559168,False
wicked-spot-smoke-shop-los-angeles-4,34.0977190607,-118.364222263,Wicked Spot Smoke Shop,7982 Sunset Blvd Los Angeles CA 90046,headshops tobaccoshops vapeshops,90008,+13236457570,False
la-glass-los-angeles-2,34.0198782776,-118.407512206,La Glass,3752 Overland Ave Unit E Los Angeles CA 90034,tobaccoshops headshops vapeshops,90008,+14243414205,False
fadivape-los-angeles,34.0019340515,-118.425842285,Fadivape,3995 Inglewood Blvd Los Angeles CA 90066,vapeshops,90008,+13103135324,False
rise-up-boards-los-angeles,34.0932682722,-118.379519247,Rise Up Boards,Los Angeles CA 90046,paddleboarding vapeshops skateshops,90008,+13233808068,False
vape-and-smoke-shop-los-angeles,34.0978951,-118.3643222,Vape & Smoke Shop,7982 W Sunset Blvd Los Angeles CA 90046,vapeshops tobaccoshops,90008,+13236457570,False
city-of-smokes-los-angeles-2,34.0956525357,-118.344252453,City of Smokes,1335 N La Brea Ave Ste 1 Los Angeles CA 90028,headshops tobaccoshops vapeshops,90008,+13236066307,False
brazil-smoke-and-cigar-shop-los-angeles,34.0136222839,-118.416633606,Brazil Smoke and Cigar Shop,11127 Venice Blvd Ste 3 Los Angeles CA 90034,tobaccoshops vapeshops headshops,90008,+13102535002,False
la-cienega-smoke-shop-los-angeles,34.0572657,-118.3760751,La Cienega Smoke Shop,1080 S La Cienega Blvd Ste 104 Los Angeles CA 90035,headshops vapeshops,90008,+13106574611,False
smokers-culture-los-angeles-2,34.0837562569,-118.35369942,Smokers Culture,7511 Melrose Ave Los Angeles CA 90046,vapeshops tobaccoshops headshops,90008,+18186418366,False
dream-center-smoke-shop-los-angeles-4,33.9617577,-118.4211197,Dream Center Smoke Shop,8327 Lincoln Blvd Los Angeles CA 90045,tobaccoshops hookah_bars vapeshops,90009,+13106492500,False
diamon-hookah-los-angeles-2,33.960487,-118.378583,Diamon Hookah,5577 W Manchester Ave Los Angeles CA 90045,tobaccoshops venues vapeshops,90009,,False
tobacco-plus-culver-city,33.9943086,-118.3957068,Tobacco Plus,5415 Sepulveda Blvd Culver City CA 90230,tobaccoshops vapeshops,90016,+14245002416,False
vitastik-beverly-hills,34.0693498,-118.4050138,VitaStik,433 N Camden Dr Ste 600 Beverly Hills CA 90210,vapeshops,90016,+13106108482,False
vapor-outlet-los-angeles,34.0569382,-118.3961411,Vapor Outlet,1100 S Beverly Dr Los Angeles CA 90035,vapeshops,90016,+13105042700,False
the-vape-unit-monterey-park,34.0403442383,-118.143295288,The Vape Unit,2099 S Atlantic Blvd Ste N Monterey Park CA 91754,vapeshops,90022,+13233182408,False
la-vapor-works-montebello,34.0179755,-118.1056192,LA Vapor Works,524 N Montebello Blvd Montebello CA 90640,tobaccoshops vapeshops,90022,+13237120044,False
vapor-times-monterey-park,34.0625579567,-118.123878166,Vapor Times,149 W Garvey Ave Monterey Park CA 91754,vapeshops,90022,+16269995918,False
vape-society-monterey-park,34.06274,-118.12961,Vape Society,501 W Garvey Ave Ste 106 Monterey Park CA 91754,vapeshops,90022,+16265452080,False
the-hype-smoke-shop-alhambra,34.0679113,-118.14935,The Hype Smoke Shop,2142 S Fremont Ave Alhambra CA 91803,vapeshops,90022,+16269405624,False
thehookah-com-montebello-2,33.9855384827,-118.132453918,The Hookah,7111 Telegraph Rd Montebello CA 90640,tobaccoshops vapeshops,90022,+13237277230,False
the-vape-inn-montebello-4,34.003616944,-118.114269823,The Vape Inn,564 S Greenwood Ave Montebello CA 90640,vapeshops,90022,+13234522420,False
vaporsmoke-los-angeles,34.0600566069,-118.174190781,VapORsmoke,1691 N Eastern Ave Los Angeles CA 90063,vapeshops,90022,,False
happy-bros-smoke-shop-and-novelty-store-los-angeles,34.0313,-118.44692,Happy Bros Smoke Shop & Novelty Store,11747 W Pico Blvd Los Angeles CA 90064,tobaccoshops vapeshops,90024,+13104733725,False
the-vapor-spot-vapor-bar-and-vape-shop-sherman-oaks-2,34.1543592483,-118.448890947,The Vapor Spot- Vapor Bar and Vape Shop,4553 Van Nuys Blvd Sherman Oaks CA 91403,vapeshops,90024,+18187848206,False
the-vapor-spot-los-angeles-11,34.098354,-118.354134,The Vapor Spot,7551 Sunset Blvd Los Angeles CA 90046,tobaccoshops vapeshops,90024,+13238459930,False
vapor-delight-santa-monica-4,34.01287,-118.48308,Vapor Delight,1855 Lincoln Blvd Santa Monica CA 90404,tobaccoshops vapeshops headshops,90024,+13109862076,False
vapor-shop-and-lounge-of-sherman-oaks-los-angeles-2,34.1488914,-118.4357376,Vapor Shop & Lounge of Sherman Oaks,13909 Ventura Blvd Los Angeles CA 91423,vapeshops,90024,+18189079377,False
vape-place-los-angeles-5,34.03152,-118.44644,Vape Place,11725 W Pico Blvd Los Angeles CA 90064,vapeshops,90024,+14242930212,False
venice-vapor-lab-marina-del-rey,33.990837,-118.446235,Venice Vapor Lab,13464 W Washington Blvd Marina Del Rey CA 90292,vapeshops,90024,+13107516598,False
101-smoke-shop-los-angeles-2,34.1299379296,-118.348853733,101 Smoke Shop,3266 W Cahuenga Blvd Los Angeles CA 90068,tobaccoshops vapeshops,90024,+13237985551,False
studio-city-smoke-shop-studio-city,34.1406599,-118.37167,Studio City Smoke Shop,11046 Ventura Blvd Studio City CA 91604,vapeshops tobaccoshops headshops,90024,+18188216496,False
chill-n-vape-lounge-studio-city,34.1400099,-118.37647,Chill N Vape Lounge,11314 Ventura Blvd Studio City CA 91604,vapeshops,90024,+18183086911,False
elite-smoke-shop-los-angeles-5,34.1332393,-118.3573699,Elite Smoke Shop,3535 Cahuenga Blvd W Ste 101 Los Angeles CA 90068,tobaccoshops vapeshops,90024,+13239635767,False
endless-vapors-la-studio-city-7,34.1395366,-118.3788958,Endless Vapors LA,11392 Ventura Blvd Studio City CA 91604,vapeshops headshops,90024,+18182170724,False
the-vapor-shop-vape-bar-and-vape-lounge-los-angeles-6,34.0980949,-118.3431129,The Vapor Shop - Vape Bar and Vape Lounge,7061 Sunset Blvd Ste A Los Angeles CA 90028,vapeshops tobaccoshops,90024,+13237450090,False
magic-vape-house-santa-monica-3,34.0187734365,-118.490446284,Magic Vape House,1439 Lincoln Blvd Santa Monica CA 90401,vapeshops headshops,90024,+13239096840,False
smoke-spot-los-angeles,34.0601626,-118.4468575,Smoke Spot,10953 Kinross Ave Los Angeles CA 90024,tobaccoshops headshops vapeshops,90024,+13108248840,False
the-smoke-shop-los-angeles-8,34.0980949,-118.3431129,The Smoke Shop,7061 W Sunset Blvd Ste B Los Angeles CA 90028,vapeshops tobaccoshops,90024,+13237450090,False
blue-dream-la-studio-city-2,34.141482,-118.388125,Blue Dream LA,11709 Ventura Blvd Studio City CA 91604,vapeshops headshops,90024,+18188216688,False
venice-smoke-free-life-e-cigs-venice,33.9929147,-118.4787717,Venice Smoke Free Life E-Cigs,517 Ocean Front Walk Ste 3 Venice CA 90291,vapeshops,90024,+13104503934,False
smoke-spa-sherman-oaks,34.1469033785,-118.461059712,Smoke Spa,15030 Ventura Blvd Unit 18 Sherman Oaks CA 91403,vapeshops tobaccoshops,90024,+18184653970,False
quick-silver-and-crystal-venice-2,33.9894919,-118.4758359,Quick Silver & Crystal,1101 Ocean Front Walk Venice CA 90291,vapeshops,90024,+13103996623,False
lala-land-los-angeles-2,33.9875950261,-118.474129844,Lala Land,1421 Ocean Front Walk Los Angeles CA 90291,vapeshops headshops,90024,+13103991489,False
state-beach-liquor-store-santa-monica-3,34.028031,-118.518738,State Beach Liquor Store,14801 Pacific Coast Hwy Santa Monica CA 90402,beer_and_wine grocery vapeshops,90024,+13102303222,False
v-for-vape-los-angeles-5,34.10255,-118.29219,V For Vape,1727 N Vermont Ave Ste 210 Los Angeles CA 90027,vapeshops,90027,+13239282148,False
brazil-smoke-and-vape-shop-los-angeles-2,34.0999088609,-118.292491052,Brazil Smoke & Vape Shop,1555 N Vermont Ave Los Angeles CA 90027,tobaccoshops vapeshops,90027,+13236692679,False
hollywood-house-of-smokes-los-angeles,34.0994979538,-118.308986879,Hollywood House of Smokes,1550 N Western Ave Los Angeles CA 90027,tobaccoshops vapeshops headshops,90027,+13234985958,False
d-smoke-shop-los-angeles-2,34.09843,-118.30178,D Smoke shop,5133 Sunset Blvd Los Angeles CA 90027,tobaccoshops headshops vapeshops,90027,+13239129223,False
the-vape-shop-los-angeles-6,34.1036354,-118.3385478,The Vape Shop,1770 N Highland Ave Ste J Fl 2 Los Angeles CA 90028,vapeshops,90028,+13234509178,False
vape-shop-hollywood-los-angeles,34.1017249,-118.3318566,Vape Shop Hollywood,6521 Hollywood Blvd Los Angeles CA 90028,vapeshops tobaccoshops,90028,+13237450440,False
the-tobacco-factory-los-angeles,34.10033,-118.32926,The Tobacco Factory,1616 N Cahuenga Los Angeles CA 90028,tobaccoshops vapeshops headshops,90028,+13234985525,False
the-smoke-shop-hollywood-los-angeles,34.1017249,-118.3318566,The Smoke Shop Hollywood,6521 Hollywood Blvd Los Angeles CA 90028,vapeshops tobaccoshops,90028,+13237450440,False
cosmo-smoke-shop-los-angeles,34.101333,-118.328962,Cosmo Smoke Shop,6368 Hollywood Blvd Los Angeles CA 90028,vapeshops tobaccoshops,90028,+13234985682,False
vapewood-los-angeles,34.1017265,-118.3314972,VapeWood,6509 Hollywood Blvd Los Angeles CA 90028,vapeshops,90028,+13234642537,False
tatuaje-cigars-los-angeles,34.0978851,-118.3534902,Tatuaje Cigars,7518 W Sunset Blvd Los Angeles CA 90046,vapeshops,90028,+13235124427,False
the-vape-society-glendale,34.1337674281,-118.255539404,The Vape Society,1023 S Brand Blvd Unit C Glendale CA 91204,vapeshops,90029,+18182456710,False
mr-smokes-glendale-3,34.1332733852,-118.25155981,Mr Smokes,1104 S Glendale Ave Glendale CA 91205,tobaccoshops vapeshops,90029,+18186961008,False
vapejuicedepot-glendale,34.13505,-118.26396,VapeJuiceDepot,4551 San Fernando Rd Unit 207 Glendale CA 91204,vapeshops,90029,+14247779098,False
aa-smoke-shop-los-angeles,34.1049875,-118.2578318,AA Smoke Shop,2334 Fletcher Dr Los Angeles CA 90039,tobaccoshops vapeshops,90029,+13234269724,False
vapeology-la-electronic-cigarettes-los-angeles-2,34.0901909,-118.2118378,Vapeology LA Electronic Cigarettes,3714 N Figueroa St Los Angeles CA 90065,vapeshops,90031,+13232220744,False
vapegoat-los-angeles-4,34.12084198,-118.205123901,Vapegoat,5054 York Blvd Los Angeles CA 90042,vapeshops,90031,+13234746570,False
kingdom-smoke-shop-los-angeles,34.12118,-118.20387,Kingdom Smoke Shop,5121 York Blvd Los Angeles CA 90042,tobaccoshops vapeshops,90031,+13236751004,False
vape-smoke-shop-1-los-angeles,34.0858073,-118.1783471,Vape Smoke Shop 1,4852 Huntington Dr S Los Angeles CA 90032,vapeshops headshops,90031,+13236126240,False
acti-vape-alhambra,34.07798,-118.128334,Acti Vape,500 W Valley Blvd Unit C Alhambra CA 91803,vapeshops,90032,+16268726287,False
super-vape-alhambra-alhambra,34.0977104,-118.1548825,Super Vape Alhambra,200 Huntington Dr N Alhambra CA 91801,vapeshops,90032,+16262812800,False
the-vape-theory-glendale,34.1412783,-118.2547851,The Vape Theory,420 S Brand Blvd Glendale CA 91204,vapeshops,90039,+18182433499,False
citi-smoke-shop-glendale-2,34.1439,-118.24799,Citi Smoke Shop,216 S Glendale Ave Glendale CA 91205,tobaccoshops vapeshops,90039,+18185008002,False
cosmic-cloud-glendale-2,34.14293,-118.23911,Cosmic Cloud,1215 E Colorado St Glendale CA 91205,headshops tobaccoshops vapeshops,90039,+16266560941,False
pure-blue-vapor-lounge-glendale,34.13792,-118.25528,Pure Blue Vapor Lounge,707 S Brand Blvd Glendale CA 91204,vapeshops hookah_bars,90039,+18186491020,False
simply-4-vapor-los-angeles-3,34.14138,-118.22585,Simply 4 Vapor,2700 Colorado Blvd Fl 1st Los Angeles CA 90041,vapeshops headshops,90039,+13234493301,False
downey-vapes-downey-3,33.9594248619,-118.140238508,Downey Vapes,10033 Tecum Rd Downey CA 90240,vapeshops,90040,+13234034433,False
cali-clouds-smoke-shop-and-vape-shop-pico-rivera-3,33.9634660236,-118.109096404,Cali Clouds Smoke Shop & Vape Shop,8411 Rosemead Blvd Pico Rivera CA 90660,vapeshops tobaccoshops headshops,90040,+15626597595,False
smoke-shop-and-water-ice-mart-pico-rivera,33.9546069,-118.1006313,Smoke Shop & Water Ice Mart,9477 Telegraph Rd Pico Rivera CA 90660,convenience waterstores vapeshops,90040,+15628013472,False
cig-zone-pasadena,34.1359049,-118.1531599,Cig Zone,141 W California Blvd Pasadena CA 91105,tobaccoshops headshops vapeshops,90042,+16265771400,False
cloudscape-vape-torrance,33.8719994912,-118.351101201,Cloudscape Vape,17494 Hawthorne Blvd Torrance CA 90504,vapeshops,90044,+13103717100,False
vape-place-redondo-beach-2,33.8730347752,-118.361798608,Vape Place,2705 Artesia Blvd Redondo Beach CA 90278,vapeshops,90044,+13103711328,False
studio-city-vapor-studio-city-2,34.1654450134,-118.396902084,Studio City Vapor,5219 Laurel Canyon Blvd Studio City CA 91607,vapeshops,90049,+18187611930,False
vapor-delux-north-hollywood-north-hollywood-2,34.16542,-118.37531,Vapor Delux - North Hollywood,5221 Lankershim Blvd North Hollywood CA 91601,vapeshops,90049,+18188563750,False
corner-tobacco-los-angeles,34.16517,-118.40447,Corner Tobacco,12437 Magnolia Blvd Los Angeles CA 91607,tobaccoshops vapeshops mobilephonerepair,90049,+18187627777,False
famous-smoke-shop-north-hollywood,34.18629,-118.41233,Famous Smoke Shop,12816 Victory Blvd North Hollywood CA 91606,tobaccoshops vapeshops,90049,+18185088888,False
payless-vapes-los-angeles-2,34.17183,-118.4307,Payless Vapes,13648 Burbank Blvd Los Angeles CA 91401,vapeshops,90049,+18187790464,False
charlies-vape-bar-encino,34.164818,-118.526322,Charlie's Vape Bar,18054 Ventura Blvd Encino CA 91316,vapeshops,90049,+18185785752,False
noho-tobacco-north-hollywood-4,34.1614298,-118.3722919,Noho Tobacco,5012 Lankershim Blvd North Hollywood CA 91601,tobaccoshops vapeshops headshops,90049,+18185058400,False
giftworx-van-nuys-3,34.1724832165,-118.440162682,Giftworx,14101 Burbank Blvd Van Nuys CA 91401,tobaccoshops vapeshops,90049,+18187868255,False
skyes-the-limit-vapor-shop-valley-village-2,34.1576549662,-118.397495147,Skye's The Limit Vapor Shop,12125 Riverside Dr Ste 100 Valley Village CA 91607,vapeshops,90049,+18185826957,False
aqua-fresh-water-north-hollywood-3,34.17994,-118.370629,Aqua Fresh Water,6005 Vineland Ave Ste 104 North Hollywood CA 91606,vapeshops waterstores headshops,90049,+18189806007,False
smokes-plus-valley-village,34.15789,-118.39572,Smokes Plus,12041 Riverside Dr Valley Village CA 91607,tobaccoshops vapeshops hookah_bars,90049,+18185058184,False
the-village-smoke-shop-and-accessories-valley-village-3,34.1672465892,-118.396546787,The Village Smoke Shop and Accessories,5317 Laurel Canyon Blvd Valley Village CA 91607,tobaccoshops vapeshops,90049,+18189805552,False
2-bros-smoke-shop-and-vape-van-nuys,34.20079422,-118.501487732,2 Bros Smoke Shop & Vape,16900 Sherman Way Ste 4 Van Nuys CA 91406,tobaccoshops vapeshops,90049,+18185785140,False
golden-smoke-shop-los-angeles-3,34.201413,-118.538943,Golden Smoke Shop,18601 Sherman Way Los Angeles CA 91335,tobaccoshops headshops vapeshops,90049,+18185783054,False
good-vibes-vapor-lounge-tarzana,34.16761,-118.53384,Good Vibes Vapor Lounge,18400 1/2 Ventura Blvd Tarzana CA 91356,vapeshops,90049,+18186975812,False
noho-vape-los-angeles,34.1747768,-118.380626,NoHo Vape,5727 Lankershim Blvd Los Angeles CA 91601,vapeshops,90049,+18188245877,False
777-smoke-shop-los-angeles,34.19589,-118.53563,777 Smoke shop,6900 Reseda blvd Ste B Los Angeles CA 91335,tobaccoshops vapeshops,90049,+18186975666,False
cahuenga-smokeshop-north-hollywood,34.1735668,-118.3614351,Cahuenga Smokeshop,5660 Cahuenga Blvd North Hollywood CA 91601,tobaccoshops vapeshops,90049,+18185095867,False
smokeys-smoke-shop-van-nuys,34.1931288767,-118.518260881,Smokey's Smoke Shop,6722 White Oak Ave Van Nuys CA 91406,tobaccoshops vapeshops headshops,90049,+13233633363,False
deuces-wild-smoke-shop-van-nuys,34.1870607,-118.4570797,Deuces Wild Smoke Shop,14851 Victory Blvd Unit D Van Nuys CA 91411,tobaccoshops vapeshops,90049,+18187823919,False
captain-eds-h-and-h-shop-reseda,34.19806,-118.53645,Captain Ed's H & H Shop,7011 Reseda Blvd Reseda CA 91335,headshops vapeshops,90049,+18189961222,False
flamingo-smoke-shop-north-hollywood-2,34.1938151,-118.4057325,Flamingo Smoke Shop,12508 1/2 Vanowen St North Hollywood CA 91605,vapeshops tobaccoshops,90049,+18185053962,False
duet-smoke-shop-van-nuys-3,34.20177,-118.46801,Duet Smoke Shop,15355 Sherman Way Unit H Van Nuys CA 91406,vapeshops,90049,+18184769182,False
the-green-house-smoke-and-vapor-shop-marina-del-rey-2,33.98697,-118.45359,The Green House Smoke & Vapor Shop,736 W Washington Blvd Marina del Rey CA 90292,tobaccoshops vapeshops headshops,90066,+13108210420,False
moon-wolf-smoke-vape-shop-los-angeles,34.1520951,-118.3634582,Moon Wolf Smoke Vape Shop,10662 Riverside Dr Los Angeles CA 91602,vapeshops tobaccoshops headshops,90068,+18183583311,False
elevated-vaping-burbank,34.1633237531,-118.327416694,Elevated Vaping,2227 W Olive Ave Ste D Burbank CA 91506,vapeshops,90068,+18185388273,False
chronik-fusions-cbd-los-angeles,34.1522383791,-118.363642506,Chronik Fusions CBD,10660 Riverside Dr Ste F Los Angeles CA 91602,vapeshops,90068,+18183584071,False
white-rabbit-encino,34.1641129,-118.5238852,White Rabbit,17958 Ventura Blvd Encino CA 91316,tobaccoshops vapeshops,90077,+18187577271,False
venice-circle-venice,33.9863488367,-118.473042427,Venice Circle,1701 Ocean Front Walk Venice CA 90291,vitaminssupplements healthmarkets vapeshops,90094,+14242385046,False
dr-mikes-vapors-downey,33.929537026,-118.12130166,Dr Mike's Vapors,9260-1 /2 Hall Rd Downey CA 90241,vapeshops,90096,+15629231837,False
no-smokin-basel,47.55466,7.61088,No Smokin',ZÃ¼rcherstrasse 91 4052 Basel Switzerland,vapeshops,90102,+41786290857,False
vape-prodigy-downey,33.9302817073,-118.114130125,Vape Prodigy,9510 Firestone Blvd Downey CA 90241,vapeshops,90201,+15629228400,False
beyond-vape-downey,33.9313504,-118.1145427,Beyond Vape,9455 Firestone Blvd Downey CA 90241,vapeshops,90201,+15622912704,False
vaperev-cerritos-2,33.8856010437,-118.104888916,VapeRev,15971 Piuma Ave Cerritos CA 90703,vapeshops,90201,+15626534730,False
smoken-smoke-house-downey,33.9100078,-118.1163263,Smoken Smoke House,13260 Woodruff Ave Downey CA 90242,tobaccoshops vapeshops,90201,+15628031515,False
vaporise-bellflower,33.9013567,-118.1168317,Vaporise,14329 Woodruff Ave Ste D Bellflower CA 90706,vapeshops,90201,+15628661646,False
montebello-smoke-shop-montebello,34.015038,-118.097313,Montebello Smoke Shop,201 E Beverly Blvd Montebello CA 90640,tobaccoshops vapeshops,90201,+13234907472,False
sams-smoke-shop-whittier,33.9650497437,-118.070205688,Sam's Smoke Shop,11515 Slauson Ave Ste 107 Whittier CA 90606,tobaccoshops vapeshops,90201,+15622058465,False
puffs-smoke-shop-pico-rivera,33.9979963,-118.0762885,Puffs Smoke Shop,4933 Durfee Ave Pico Rivera CA 90660,tobaccoshops vapeshops headshops,90201,+15629494222,False
downey-smoke-shop-downey-3,33.9456628,-118.1181696,Downey Smoke Shop,10313 Lakewood Blvd Downey CA 90241,tobaccoshops vapeshops,90201,+15629231200,False
smokin-vape-smoke-shop-norwalk,33.9096938748,-118.075724191,Smokin Vape Smoke Shop,12037 Firestone Blvd Norwalk CA 90650,vapeshops,90201,+15628636566,False
e-vapor-cantina-norwalk,33.916859,-118.099896,E-Vapor Cantina,10948 Imperial Hwy Ste 103 Norwalk CA 90650,vapeshops,90201,+15628682777,False
vapeoholic-carson,33.8129135,-118.2756635,vapeOholic,23409 Main St Carson CA 90745,vapeshops,90220,+13105182677,False
vapordna-torrance-2,33.821114293,-118.32932397,VaporDNA,22517 Crenshaw Blvd Torrance CA 90505,vapeshops,90220,+14242509686,False
vapor-craze-long-beach,33.8279738277,-118.185134456,Vapor Craze,3837 Atlantic Ave Long Beach CA 90807,vapeshops,90220,+15623661150,False
long-beach-vapors-long-beach-4,33.80411,-118.21636,Long Beach Vapors,1740 W Willow St Long Beach CA 90810,vapeshops headshops,90220,+15623346602,False
the-vape-empire-torrance,33.8304298,-118.2901423,The Vape Empire,21720 S Vermont Ave Ste 107 Torrance CA 90502,vapeshops,90220,+13105339665,False
liquidus-vapors-carson,33.8091936707,-118.275493383,Liquidus Vapors,23740 Main St Carson CA 90745,vapeshops,90220,+13105131017,False
vapor-stream-long-beach-2,33.8405968,-118.1764449,Vapor Stream,4505 Orange Ave Long Beach CA 90807,vapeshops,90220,+15626124181,False
city-vapors-long-beach-2,33.846503,-118.168529,City Vapors,1942 E Del Amo Blvd Long Beach CA 90807,vapeshops,90220,+15624221517,False
vape-tales-torrance,33.8078245,-118.3279233,Vape Tales,23836 Crenshaw Blvd Torrance CA 90505,vapeshops,90220,+13103258273,False
paramount-smoke-and-vape-shop-lakewood-3,33.8464913,-118.1600249,Paramount Smoke & Vape Shop,4829 Paramount Blvd Lakewood CA 90712,tobaccoshops vapeshops headshops,90220,+15624224700,False
greekos-torrance,33.8199989498,-118.308854029,Greeko's,22706 S Western Ave Torrance CA 90501,headshops vapeshops,90220,+13103749040,False
vape-n-taste-carson-3,33.831055,-118.259827,Vape N Taste,860 E Carson St Ste 110 Carson CA 90745,vapeshops,90220,+13106841339,False
rick-wickeds-long-beach-2,33.8299147,-118.1847112,Rick Wicked's,3930 Atlantic Ave Long Beach CA 90807,tobaccoshops headshops vapeshops,90220,+15629894742,False
vame-vapory-torrance,33.82062,-118.32418,VAME Vapory,2350 W Sepulveda Blvd Unit F Torrance CA 90501,vapeshops,90220,+14246668263,False
oil-patch-liquor-signal-hill,33.80466,-118.159172,Oil Patch Liquor,2799 E Willow St Signal Hill CA 90755,beer_and_wine vapeshops,90220,+15624240623,False
lets-vape-lomita,33.7956976,-118.3197942,Let's Vape,25220 Narbonne Ave Ste A Lomita CA 90717,vapeshops,90220,+14242634036,False
cali-smoke-shop-long-beach,33.7937106,-118.1891451,Cali Smoke Shop,2006 Long Beach Blvd Long Beach CA 90806,vapeshops tobaccoshops,90220,+15622180420,False
long-beach-smoke-shop-long-beach-2,33.7987213,-118.1897812,Long Beach Smoke Shop,2295 Longbeach Blvd Ste A Long Beach CA 90806,tobaccoshops vapeshops,90220,+15624264999,False
tobacco-for-less-long-beach-2,33.80551,-118.19057,Tobacco For Less,141 E Willow St Ste R Long Beach CA 90806,vapeshops,90220,+15629970055,False
tobacco-4-less-bellflower,33.8762618838,-118.140822016,Tobacco 4 Less,17210 Lakewood Blvd Bellflower CA 90706,vapeshops tobaccoshops headshops,90220,+15624611290,False
genki-vape-lakewood,33.8469550341,-118.123965,Genki Vape,5528 Del Amo Blvd Lakewood CA 90713,vapeshops,90221,+15624254350,False
vape-it-easy-bellflower,33.8791529,-118.124912,Vape It Easy,17038 Bellflower Blvd Bellflower CA 90706,vapeshops,90221,+15629202547,False
the-pipe-king-smoke-shop-and-vape-store-lakewood,33.8469330221,-118.116147369,The Pipe King Smoke Shop and Vape Store,5912 Del Amo Blvd Lakewood CA 90713,tobaccoshops vapeshops,90221,+15624293399,False
vaporland-long-beach-5,33.8101318,-118.1083794,VaporLand,6340 E Spring St Long Beach CA 90815,vapeshops,90221,+15624201307,False
amsterdam-smoke-and-vape-shop-lakewood-2,33.8605179,-118.12428,Amsterdam Smoke & Vape Shop,5521 South St Lakewood CA 90713,tobaccoshops vapeshops,90221,+15628047200,False
cig-star-lakewood,33.833822,-118.1164051,Cig Star,4152 Woodruff Ave Lakewood CA 90713,tobaccoshops headshops vapeshops,90221,+15624252594,False
the-influx-bellflower-3,33.8754187524,-118.117239699,The Influx,17314 Woodruff Ave Bellflower CA 90706,vapeshops,90221,+15629911210,False
hygeia-vape-and-smoke-shop-lomita,33.7894350343,-118.311764449,Hygeia Vape & Smoke Shop,1876 Pacific Coast Hwy Lomita CA 90717,vapeshops headshops,90248,+13105349434,False
south-bay-smoke-shop-torrance,33.8068468439,-118.354817268,South Bay Smoke Shop,3901 Pacific Coast Hwy Ste E Torrance CA 90505,vapeshops tobaccoshops,90248,+13103733434,False
smoke-and-fire-hookah-lounge-redondo-beach-4,33.8379562,-118.3788356,Smoke & Fire Hookah Lounge,800 Torrance Blvd Ste 103 Redondo Beach CA 90277,hookah_bars vapeshops,90248,+14242479633,False
blitzkrieg-urban-supply-torrance,33.8058714567,-118.358191536,Blitzkrieg Urban Supply,24020 Vista Montana Ste B Torrance CA 90505,vapeshops,90248,+13103734978,False
smoke-spot-torrance,33.8008908606,-118.350696824,Smoke Spot,24424 Hawthorne Blvd Ste A Torrance CA 90505,headshops tobaccoshops vapeshops,90248,+14242478695,False
deja-vu-smoke-and-gift-lomita,33.7898,-118.31009,Deja Vu Smoke & Gift,1815 Pacific Coast Hwy Lomita CA 90717,tobaccoshops vapeshops headshops,90248,+13105344481,False
crown-tobacco-smoke-shop-torrance-2,33.857979,-118.363784,Crown Tobacco Smoke Shop,4950 W 190th St Torrance CA 90503,tobaccoshops vapeshops,90248,+13102140514,False
greenleaf-tobacco-redondo-beach,33.8547060639,-118.379872888,Greenleaf Tobacco,1236 Beryl St Redondo Beach CA 90277,tobaccoshops headshops vapeshops,90248,+13107983009,False
harbor-smoke-shop-harbor-city,33.790702,-118.295997,Harbor Smoke Shop,1111 Pacific Coast Hwy Ste 11 Harbor City CA 90710,tobaccoshops vapeshops,90248,+13105399594,False
vapors4u-torrance,33.8383168695,-118.353309343,Vapors4U,20928 Hawthorne Blvd Torrance CA 90503,vapeshops,90248,+13109822640,False
tc-smoke-shop-redondo-beach,33.8284941411,-118.385281346,TC Smoke Shop,800 S Pacific Coast Hwy Redondo Beach CA 90277,vapeshops tobaccoshops,90248,+13103163970,False
heavy-hitter-smoke-shop-redondo-beach-2,33.83852,-118.37587,Heavy Hitter Smoke Shop,1000 Torrance Blvd Ste D Redondo Beach CA 90277,vapeshops tobaccoshops headshops,90248,+13105435223,False
cigar-hookah-and-beyond-smoke-and-vape-shop-hermosa-beach-2,33.8580807,-118.3908204,Cigar Hookah & Beyond Smoke & Vape Shop,432 Pacific Coast Hwy Hermosa Beach CA 90254,tobaccoshops vapeshops headshops,90250,+13103188666,False
lomita-smoke-shop-lomita,33.7892009459,-118.3124916,Lomita Smoke Shop,1918 Pacific Coast Hwy Lomita CA 90717,tobaccoshops vapeshops headshops,90254,+13103262341,False
la-vapor-san-gabriel,34.0759333,-118.0909366,LA Vapor,1841 S San Gabriel Blvd Ste C San Gabriel CA 91776,vapeshops,90255,+16268721936,False
vape-street-artesia-3,33.8714775,-118.081447,Vape Street,17510 Pioneer Blvd Ste 207 Artesia CA 90701,vapeshops headshops,90255,+15629248787,False
aqua-vape-temple-city,34.1069052,-118.0583681,Aqua Vape,9678 Las Tunas Dr Temple City CA 91780,vapeshops,90255,+16262912547,False
smokey-smoke-shop-whittier,33.9985933,-118.0548285,Smokey Smoke Shop,10807 Beverly Blvd Ste D Whittier CA 90601,tobaccoshops headshops vapeshops,90255,+15626955200,False
just-vape-san-gabriel-2,34.102441,-118.090578,Just Vape,124 S San Gabriel Blvd San Gabriel CA 91776,vapeshops,90255,+16268722414,False
the-vape-site-rosemead,34.0792405,-118.0821864,The Vape Site,3927 Walnut Grove Ave Ste B123 Rosemead CA 91770,vapeshops,90255,+16264168257,False
vape-couture-cypress-3,33.8291155962,-118.028746594,Vape Couture,9171 Valley View St Cypress CA 90630,vapeshops,90255,+17144204401,False
sgv-smoke-shop-san-gabriel,34.1042599,-118.08716,SGV  Smoke Shop,927 E Las Tunas Dr Ste B San Gabriel CA 91776,tobaccoshops vapeshops headshops,90255,+16266140234,False
vape-escape-cypress,33.8318849,-118.0389746,Vape Escape,5363 Lincoln Ave Cypress CA 90630,vapeshops,90255,+17144848273,False
e-cig-city-2-hawaiian-gardens,33.8322801371,-118.081451654,E-Cig City 2,11811 Carson St Hawaiian Gardens CA 90716,vapeshops,90255,+15628608311,False
interstate-vape-woodland-hills-3,34.16653,-118.59253,Interstate Vape,21050 Ventura Blvd Woodland Hills CA 91364,vapeshops,90263,+18188838273,False
hidden-vape-woodland-hills-2,34.165774,-118.622852,Hidden Vape,22776 Ventura Blvd Ste A Woodland Hills CA 91364,vapeshops,90263,+18182228828,False
the-v-spot-vapor-thousand-oaks-12,34.179142,-118.858582,The V Spot Vapor,1165 E Thousands Oaks Blvd Thousand Oaks CA 91362,vapeshops,90263,+18058704394,False
vape-ciggy-canoga-park-4,34.2014445904,-118.61071058,Vape Ciggy,22209 Sherman Way Canoga Park CA 91303,vapeshops,90263,+18187457283,False
mc-vape-bar-woodland-hills,34.1724058,-118.5627099,MC Vape Bar,19714 Ventura Blvd Woodland Hills CA 91364,vapeshops,90263,+18186993330,False
tobacco-house-woodland-hills,34.1652644933,-118.625582918,Tobacco House,22876 Ventura Blvd Woodland Hills CA 91364,tobaccoshops vapeshops,90263,+18188053032,False
modern-smoke-shop-los-angeles,34.2008851,-118.5639733,Modern Smoke Shop,19758 Sherman Way Los Angeles CA 91306,vapeshops tobaccoshops,90263,+18189145365,False
so-cal-vape-bar-and-lounge-northridge,34.22422,-118.53546,So Cal Vape Bar & Lounge,8452 Reseda Blvd Northridge CA 91324,vapeshops,90263,+18187277299,False
titanic-vape-canoga-park,34.1880222,-118.6060249,Titanic Vape,6457 Topanga Canyon Rd Canoga Park CA 91303,vapeshops,90263,+18186614560,False
vapor-nuvola-simi-valley,34.2712059021,-118.7134552,Vapor Nuvola,4210 E Los Angeles Ave Simi Valley CA 93063,vapeshops,90263,+18055228273,False
vanowen-smoke-house-canoga-park,34.1941846,-118.5958505,Vanowen Smoke House,21301 Vanowen St Canoga Park CA 91303,tobaccoshops vapeshops,90263,+18184336226,False
kickback-cafe-northridge,34.2283634,-118.5272151,Kickback Cafe,8670 Lindley Ave Northridge CA 91325,hookah_bars musicvenues vapeshops,90263,+18186268878,False
vapor-connection-thousand-oaks,34.1752413,-118.8454492,Vapor Connection,2219 E Thousand Oaks Blvd Ste 202 Thousand Oaks CA 91362,vapeshops,90263,+18052445099,False
stone-smoke-shop-and-gift-los-angeles,34.2005501,-118.6139374,Stone Smoke Shop & Gift,22330 Sherman Way Ste C6 Los Angeles CA 91303,vapeshops tobaccoshops headshops,90263,+18188840011,False
chis-smoke-shop-chatsworth,34.2353351,-118.5979099,Chi's Smoke Shop,21410 Nordhoff St Chatsworth CA 91311,vapeshops tobaccoshops headshops,90263,+18188185055,False
hot-box-smoke-shop-northridge,34.243265,-118.535375,Hot Box Smoke Shop,9514 Reseda Blvd Ste 7 Northridge CA 91324,tobaccoshops headshops vapeshops,90263,+18186277644,False
wild-side-smoke-shop-simi-valley-2,34.2715151,-118.7641179,Wild Side Smoke Shop,1750 E Los Angeles Ave Ste D Simi Valley CA 93065,tobaccoshops headshops vapeshops,90263,+18055778298,False
the-experience-ink-mission-hills-2,34.257007,-118.470863,The Experience Ink,15534 Devonshire St Ste 102 Mission Hills CA 91345,tattoo vapeshops,90263,+18189244248,False
my-smoke-shop-burbank,34.184010855,-118.337787502,My Smoke Shop,2460 W Victory Blvd Burbank CA 91506,tobaccoshops vapeshops,90263,+18185242525,False
cloud-candy-vapors-thousand-oaks,34.17752,-118.85565,Cloud Candy Vapors,1362 E Thousand Oaks Blvd Thousand Oaks CA 91362,vapeshops,90263,+18054960400,False
bbs-smoke-shop-and-vapor-bar-reseda-2,34.20388,-118.53644,BB's Smoke Shop and Vapor Bar,7329 Reseda Blvd Reseda CA 91335,vapeshops tobaccoshops,90264,+18187057737,False
magic-smokes-woodland-hills-2,34.1861121926,-118.623634478,Magic Smokes,22804 Victory Blvd Woodland Hills CA 91367,tobaccoshops headshops vapeshops,90264,+18187199863,False
doughmain-smoke-shop-thousand-oaks,34.1784252482,-118.852066353,DoughMain Smoke Shop,1655 E Thousand Oaks Blvd Ste 103 Thousand Oaks CA 91362,tobaccoshops vapeshops headshops,90264,+18054974940,False
tobacco-royale-malibu-canyon-calabasas-3,34.14343,-118.6994682,Tobacco Royale Malibu Canyon,26500 Agoura Rd Ste 101 Calabasas CA 91302,tobaccoshops headshops vapeshops,90264,+18188710164,False
vapetag-los-angeles-2,34.2000401,-118.5711249,VapeTag,7135 Winnetka Ave Los Angeles CA 91306,vapeshops,90264,+18189638730,False
thousand-oaks-tobacco-thousand-oaks-3,34.1850639,-118.875699,Thousand Oaks Tobacco,487 N Moorpark Rd Thousand Oaks CA 91360,tobaccoshops vapeshops headshops,90264,+18053799101,False
quick-fix-phone-repair-and-smoke-shop-los-angeles,34.2004228,-118.6017721,Quick Fix Phone Repair & Smoke Shop,7143 Owensmouth Ave Los Angeles CA 91303,mobilephonerepair tobaccoshops vapeshops,90264,+18189144219,False
ecig-avenue-oak-park,34.1832588,-118.7859808,Ecig Avenue,638 Lindero Canyon Rd Ste 365 Oak Park CA 91377,vapeshops,90264,+18053807575,False
good-day-smoke-and-vape-tarzana,34.1726451,-118.5599316,Good Day Smoke & Vape,19588 Ventura Blvd Tarzana CA 91356,tobaccoshops vapeshops headshops,90264,+18185146035,False
tobacco-land-reseda,34.19283,-118.53271,Tobacco Land,18300 Vanowen St Reseda CA 91335,tobaccoshops vapeshops giftshops,90264,+18187577732,False
vapour-pirates-los-angeles-2,34.201666,-118.601949,Vapour Pirates,7219 Owensmouth Ave Los Angeles CA 91303,vapeshops,90264,+18186752980,False
cigstar-3-woodland-hills,34.16607,-118.62189,Cigstar 3,22740 Ventura Blvd Woodland Hills CA 91364,tobaccoshops headshops vapeshops,90264,+18188069225,False
the-e-ciggy-westlake-village,34.1569379,-118.798805,The E Ciggy,5740 Corsa Ave Ste 102 Westlake Village CA 91362,vapeshops,90264,+18186392449,False
magic-smokes-canoga-park,34.20135,-118.60004,Magic Smokes,21531 Sherman Way Canoga Park CA 91303,tobaccoshops headshops vapeshops,90264,+18188886244,False
vapor-forest-2-vf-agoura-hills,34.1481418992,-118.783394471,Vapor Forest #2 VF,30313 Canwood St Ste 22 Agoura Hills CA 91301,vapeshops,90264,+18188658369,False
the-vapor-bar-thousand-oaks,34.1789627,-118.8659286,The Vapor Bar,658 E Thousand Oaks Blvd Block B Thousand Oaks CA 91360,vapeshops,90264,+18057771001,False
jigsawjuice-woodland-hills,34.1910458015,-118.595545239,JigSawJuice,Woodland Hills CA,vapeshops,90264,+18189173834,False
vapor-forrest-agoura-hills,34.14816,-118.78216,Vapor Forrest,30313 Canwood St Ste 22 Agoura Hills CA 91301,vapeshops,90264,+18188658369,False
pegasus-vape-agoura-hills,34.1550940275,-118.756716549,Pegasus Vape,5737 Kanan Rd Ste 684 Agoura Hills CA 91301,vapeshops,90264,,False
nj-smoke-shop-woodland-hills,34.1684447229,-118.602014109,NJ Smoke Shop,21783 Ventura Blvd Woodland Hills CA 91364,tobaccoshops headshops vapeshops,90264,+18189928710,False
cloud-control-vapor-bar-los-angeles,34.20388,-118.53644,Cloud Control Vapor Bar,7329 1/2 Reseda Blvd Los Angeles CA 91335,vapeshops,90264,+18187057737,False
tobacco-royale-thousand-oaks,34.1818865,-118.9247901,Tobacco Royale,2160 Newbury Rd Ste B Thousand Oaks CA 91320,tobaccoshops headshops vapeshops,90265,+18054989227,False
vape-guys-too-rancho-palos-verdes,33.7580499,-118.312284,Vape Guys Too,28723 S Western Ave Rancho Palos Verdes CA 90275,vapeshops,90274,+14247779349,False
cleopatra-tobacco-and-vape-san-pedro,33.7347589,-118.2924949,Cleopatra Tobacco & Vape,1005 S Gaffey St San Pedro CA 90731,tobaccoshops vapeshops,90274,+13109357605,False
the-vapor-underground-long-beach-3,33.7694578,-118.1924088,The Vapor Underground,207 Pine Ave Long Beach CA 90802,tobaccoshops vapeshops lounges,90502,+15629996438,False
amsterdam-smoke-and-vape-shop-long-beach,33.77085,-118.19268,Amsterdam Smoke & Vape Shop,315 Pine Ave Long Beach CA 90802,tobaccoshops vapeshops,90502,+15624957000,False
the-vapor-box-whittier-2,33.9780594498,-118.037105427,The Vapor Box,7028 Greenleaf Ave Ste E Whittier CA 90601,vapeshops,90601,+15627898440,False
hemlock-vapor-company-whittier-2,33.9649297,-118.0354887,Hemlock Vapor Company,13131 Whittier Blvd Whittier CA 90602,vapeshops,90601,+15622735336,False
smoken-whittier-2,33.9239768982,-118.025192261,Smoken,11734 Colima Rd Ste 104 Whittier CA 90604,vapeshops,90601,+15629463666,False
vape-rack-whittier-2,33.9247122,-118.0237683,Vape Rack,14433 E Telegraph Rd Whittier CA 90604,vapeshops,90601,+15629418273,False
bakebros-smoke-shop-baldwin-park-5,34.0701115765,-117.965139973,BakeBros Smoke Shop,3100 Big Dalton Ave Ste 150 Baldwin Park CA 91706,headshops vapeshops tobaccoshops,90601,+18775040912,False
the-pipe-king-smoke-shop-and-vape-store-la-habra,33.9166,-117.96109,The Pipe King Smoke Shop and Vape Store,1230 W Imperial Hwy Ste M La Habra CA 90631,tobaccoshops vapeshops,90601,+15626978822,False
e-and-b-flavor-lounge-la-habra-4,33.9150286924,-117.970580145,E & B Flavor Lounge,1301 S Beach Blvd Unit i1 La Habra CA 90631,vapeshops,90601,+15624483529,False
whittier-vapes-whittier,33.9306352,-117.9952652,Whittier Vapes,15640 Leffingwell Rd Whittier CA 90604,vapeshops,90601,+15622049452,False
vapewell-whittier-3,33.9320049,-117.9770757,Vapewell,16547 Leffingwell Rd Whittier CA 90603,vapeshops,90601,+15629056100,False
circle-s-liquor-and-vape-whittier-3,33.9320049,-117.9770615,Circle S Liquor & Vape,16551 Leffingwell Rd Whittier CA 90603,beer_and_wine icecream vapeshops,90601,+15623155055,False
da-spot-whittier-3,33.9629006,-118.0319863,Da Spot,13421 Whittier Blvd Whittier CA 90605,tobaccoshops vapeshops,90601,+15629072100,False
great-smoke-house-city-of-industry-2,34.0379737,-117.9795325,Great Smoke House,14328 Valley Blvd City Of Industry CA 91746,tobaccoshops headshops vapeshops,90601,+16263369982,False
royal-smoke-and-vape-el-monte-5,34.0676145796,-118.025135943,Royal Smoke & Vape,11635 Valley Blvd Unit F El Monte CA 91732,vapeshops tobaccoshops,90601,+16264165353,False
smoky-lous-smoke-shop-south-el-monte,34.04107,-118.03612,Smoky Lou's Smoke Shop,1611 Durfee Ave South El Monte CA 91733,vapeshops tobaccoshops,90601,,False
bsp-vapes-hacienda-heights-3,34.0116055,-117.9625013,BSP Vapes,1012A Hacienda Blvd Hacienda Heights CA 91745,vapeshops,90601,+16269613333,False
e-clouds-vape-and-smoke-shop-hacienda-heights,34.0078294,-117.9642513,E-Clouds Vape & Smoke Shop,1253 S Hacienda Blvd Hacienda Heights CA 91745,tobaccoshops vapeshops headshops,90601,+16263300799,False
tobacco-post-hacienda-heights,34.0136867,-117.9721766,Tobacco Post,15351 Gale Ave Hacienda Heights CA 91745,tobaccoshops vapeshops headshops,90601,+16269617259,False
vapor-buzz-la-puente,34.0527687,-117.9725876,Vapor Buzz,13965 E Amar Rd Unit B La Puente CA 91746,vapeshops,90601,+16265816295,False
e-cig-city-5-hacienda-heights,34.0087354,-117.9566502,E-Cig City 5,16042 E Gale Ave Hacienda Heights CA 91745,vapeshops,90604,+16267234586,False
bz-vapin-vape-shop-la-habra-2,33.925402,-117.929966,BZ Vapin' Vape Shop,1403 E Lambert Rd Ste L La Habra CA 90631,vapeshops,90604,+15626919999,False
vapor-bombz-anaheim,33.84887,-117.9586,Vapor Bombz,1142 N Brookhurst St Ste 100 Anaheim CA 92801,vapeshops,90604,+17144917761,False
vape-port-buena-park,33.8584,-117.99903,Vape Port,7700 Orangethorpe Ave Ste 6 Buena Park CA 90621,vapeshops,90604,+17145218975,False
fa-vaping-brea-9,33.9177909791,-117.917410922,FA Vaping,1219 W Imperial Hwy Ste 103 Brea CA 92821,vapeshops,90604,+17145822577,False
the-juice-joint-vape-co-buena-park-2,33.8583,-118.02655,The Juice Joint Vape Co.,6122 Orangethorpe Ave Ste 104 Buena Park CA 90620,vapeshops,90604,+17147358483,False
vapor-stream-2-la-mirada,33.8983514,-118.009493,Vapor Stream 2,15086 Rosecrans Ave La Mirada CA 90638,vapeshops,90604,+17147358582,False
fresh-tobacco-smoke-shop-and-vape-fullerton,33.860149,-117.924682,Fresh Tobacco Smoke Shop & Vape,1125 S Harbor Blvd Ste B Fullerton CA 92832,tobaccoshops vapeshops,90604,+17145193294,False
tobacco-buzz-brea,33.91709,-117.91193,Tobacco Buzz,860 W Imperial Hwy Ste N Brea CA 92821,tobaccoshops vapeshops,90604,+17142569090,False
smoke-inn-fullerton-3,33.8992451,-117.9105466,Smoke Inn,1010 E Bastanchury Rd Fullerton CA 92835,tobaccoshops vapeshops,90604,+17146740736,False
common-clothing-company-buena-park,33.869518,-117.989921,Common Clothing Company,8200 Commonwealth Ave Buena Park CA 90621,menscloth vapeshops skateshops,90604,+17147365100,False
vape-plus-fullerton-anaheim-2,33.8593751,-117.9186498,Vape Plus Fullerton,52 Orangethorpe Ave Anaheim CA 92801,vapeshops,90604,+17144411229,False
beast-e-juice-buena-park-2,33.86507,-117.99804,Beast E Juice,Buena Park CA,vapeshops,90604,+17142909746,False
milan-smoke-shop-city-of-industry,34.009624,-117.956975,Milan Smoke Shop,16025 Gale Ave Ste B4 City of Industry CA 91745,vapeshops headshops,90604,,False
h-and-a-smoke-shop-la-habra-2,33.9323264626,-117.931757234,H&A Smoke Shop,1281 E Habra Blvd Ste 5 La Habra CA 90631,vapeshops,90604,+15622457375,False
da-vinci-smoke-and-conv-store-la-habra,33.9320371573,-117.942371406,Da Vinci Smoke & Conv Store,347 E La Habra Blvd La Habra CA 90631,vapeshops tobaccoshops,90604,+17145880210,False
vape-social-buena-park-2,33.87298,-117.99787,Vape Social,6026 Beach Blvd Buena Park CA 90621,vapeshops,90604,+17146702700,False
valley-smoke-shop-city-of-industry-2,34.0224311274,-117.959531844,Valley Smoke Shop,15471 E Valley Blvd City of Industry CA 91746,vapeshops,90605,+16268551100,False
crown-vapors-garden-grove,33.76711,-117.97278,Crown Vapors,13471 Magnolia St Suite B Garden Grove CA 92844,vapeshops,90620,+17145390099,False
vapor-store-smoke-shop-anaheim,33.8380675595,-117.958366354,Vapor Store Smoke Shop,500 N Brookhurst St Ste 101 Anaheim CA 92801,tobaccoshops vapeshops headshops,90620,+17147801150,False
vapor-zone-vape-shop-cypress,33.8184458,-118.0369978,Vapor Zone Vape Shop,9923 Walker St Cypress CA 90630,vapeshops,90620,+17143912180,False
vape-envy-stanton-3,33.8097167,-118.0105651,Vape Envy,10506 Knott Ave Stanton CA 90680,vapeshops,90620,+17148862381,False
simple-smokes-and-vapors-westminster-4,33.7593749,-117.9922966,Simple Smokes and Vapors,7835 Westminster Blvd Westminster CA 92683,vapeshops,90620,+19493570633,False
havana-smoke-shop-anaheim-7,33.8230915,-117.9588051,Havana Smoke Shop,654 S Brookhurst St Anaheim CA 92804,tobaccoshops vapeshops headshops,90620,+17147720335,False
simple-vapors-westminster-5,33.7730306512,-118.0233594,Simple Vapors,13077 Springdale St Westminster CA 92683,vapeshops,90620,+17147175687,False
world-smoke-shop-anaheim-2,33.826068,-117.9584002,World Smoke Shop,512 S Brookhurst St Unit 2 Anaheim CA 92804,tobaccoshops vapeshops headshops,90620,+17145633124,False
reefers-smoke-shop-anaheim,33.83292,-117.94503,Reefer's Smoke Shop,1773 W Lincoln Ave Anaheim CA 92801,tobaccoshops vapeshops headshops,90620,+17146163205,False
huff-and-puffers-garden-grove,33.7873933948,-117.960642558,Huff and Puffers,12105 Brookhurst St Ste E Garden Grove CA 92840,vapeshops,90620,+16572335688,False
vape101-stanton,33.8030603,-118.008875,Vape101,7143 Katella Ave Ste A Stanton CA 90680,vapeshops,90620,+17142369773,False
midnight-vapors-garden-grove-2,33.7882572742,-117.923104726,Midnight Vapors,12036 West St Garden Grove CA 92840,vapeshops,90620,+17147980886,False
omg-smoke-and-vapor-garden-grove,33.7769956,-117.9567562,OMG Smoke And Vapor,12772 Brookhurst St Garden Grove CA 92840,tobaccoshops headshops vapeshops,90620,+17145301700,False
smokeyz-smoke-shop-anaheim,33.827489,-117.941036,Smokeyz Smoke Shop,410 S Euclid St Anaheim CA 92802,tobaccoshops vapeshops headshops,90620,+17147788950,False
freedom-vapez-anaheim-4,33.79653,-117.94113,Freedom Vapez,2060 S Euclid Ste C Anaheim CA 92802,vapeshops,90620,+17148676001,False
the-vintage-vape-anaheim,33.819505,-117.940615,The Vintage Vape,910 S Euclid St Unit D Anaheim CA 92802,vapeshops,90620,+17149999932,False
smokie-dokie-smoke-shop-anaheim,33.841325,-117.9417349,Smokie Dokie Smoke Shop,689 N Euclid Anaheim CA 92801,tobaccoshops vapeshops headshops,90620,+17146355584,False
vape-heads-anaheim-2,33.827792,-117.9590749,Vape Heads,335 S Brookhurst St Anaheim CA 92804,vapeshops,90620,+17143956388,False
illusions-smoke-shop-anaheim,33.8328817174,-117.927734414,Illusions Smoke Shop,1101 W Lincoln Ave Ste 175 Anaheim CA 92805,tobaccoshops vapeshops headshops,90620,+17146037957,False
smoke-n-toke-anaheim,33.8273056916,-117.959544857,Smoke N Toke,411 S Brookhurst St Anaheim CA 92804,vapeshops tobaccoshops,90620,+17142035183,False
smoke-shop-cypress-2,33.8163824895,-118.044763156,SMOKE SHOP,5012 Ball Rd Cypress CA 90630,headshops tobaccoshops vapeshops,90620,+17147236084,False
hookah-tobacco-zone-anaheim,33.8331947327,-117.958595276,Hookah Tobacco Zone,114 N Brookhurst St Anaheim CA 92801,tobaccoshops vapeshops,90620,+17147740552,False
heavy-hitters-smoke-shop-stanton-2,33.8121941,-117.9929751,Heavy Hitters Smoke Shop,10344 Beach Blvd Stanton CA 90680,tobaccoshops headshops vapeshops,90620,+17145270420,False
corner-vapory-anaheim,33.8037863374,-117.941373289,Corner Vapory,1742 S Euclid St Anaheim CA 92802,vapeshops,90620,+18443131357,False
sams-smoke-shop-garden-grove-3,33.80281,-117.9755051,Sams Smoke Shop,11004 Magnolis St Garden Grove CA 92841,vapeshops tobaccoshops,90620,+17148862336,False
vapor-generics-garden-grove-2,33.7773288,-118.0015327,Vapor Generics,12761 Western Ave Ste D Garden Grove CA 92841,vapeshops,90620,+18888273248,False
z-smoke-shop-anaheim,33.831757,-118.0049746,Z Smoke Shop,3262 W Lincoln Ave Anaheim CA 92801,vapeshops tobaccoshops,90620,+17142365940,False
vapeforic-buena-park,33.837701,-117.9944213,VAPEFORIC,8600 Beach Blvd Ste 103 Buena Park CA 90620,vapeshops,90621,+17149524749,False
hit-this-vape-anaheim,33.8268771844,-117.959819683,Hit This Vape,423 S Brookhurst St Ste P Anaheim CA 92804,vapeshops,90621,+19512373798,False
smokin-64-anaheim-2,33.827792,-117.9590749,Smokin 64,335 S Brookhurst St Anaheim CA 92804,vapeshops headshops,90621,+17149829308,False
teddy-vapes-anaheim,33.8324707,-117.9984261,Teddy Vapes,3111 B W Lincoln Ave Anaheim CA 92801,vapeshops,90621,+17148695671,False
anaheim-vape-shoppe-anaheim,33.8179779053,-117.976142883,Anaheim Vape Shoppe,2601 W Ball Rd Ste 202 Anaheim CA 92804,vapeshops,90622,,False
hi-q-cigars-hawaiian-gardens,33.8318930154,-118.073121049,Hi- Q Cigars,12127 E Carson St Hawaiian Gardens CA 90716,tobaccoshops vapeshops,90623,+15629241177,False
ziggys-smoke-shop-westminster,33.7377626005,-117.989818879,Ziggy's Smoke Shop,15451 Beach Blvd Westminster CA 92683,tobaccoshops vapeshops headshops,90630,+17143799020,False
breathe-vape-long-beach-2,33.783795,-118.133806,Breathe Vape,5107 E Pacific Coast Hwy Long Beach CA 90804,vapeshops,90630,+15624988273,False
the-vape-depot-long-beach,33.7950287822,-118.125519007,The Vape Depot,2139 Bellflower Blvd Long Beach CA 90815,vapeshops,90630,+15624941442,False
kush-bottles-garden-grove,33.7891278,-118.0054627,Kush Bottles,11958 Monarch St Garden Grove CA 92841,headshops vapeshops,90630,+18889205874,False
mirage-vapor-and-tobacco-shop-huntington-beach,33.744846,-118.023241,Mirage Vapor and Tobacco Shop,6041 Bolsa Ave Huntington Beach CA 92647,tobaccoshops vapeshops,90630,+17148923200,False
five-star-tobacco-lakewood,33.8316894,-118.0913388,Five Star Tobacco,11401 E Carson St Ste G Lakewood CA 90715,tobaccoshops headshops vapeshops,90630,+17142404237,False
the-house-of-glass-and-vape-fullerton,33.8742332,-117.9066391,The House of Glass and Vape,1209 E Chapman Ave Fullerton CA 92831,vapeshops tobaccoshops headshops,90631,+17146108420,False
clearmist-vape-and-e-cig-rowland-heights,33.9876430482,-117.905868217,Clearmist Vape & E-Cig,1729 B Fullerton Rd Rowland Heights CA 91748,vapeshops,90631,+16268393555,False
ultramist-vape-city-of-industry-2,33.9955312,-117.906431,Ultramist Vape,18222 B Gale Ave City of Industry CA 91748,vapeshops,90631,+16268101008,False
vape-citi-fullerton,33.8744149,-117.8875047,Vape Citi,2485 E Chapman Ave Fullerton CA 92831,vapeshops,90631,+17142040132,False
vape-headquarters-brea,33.9108207,-117.8892962,Vape Headquarters,391 S State College Blvd Unit H Brea CA 92821,vapeshops,90631,+17142551719,False
vapor-solutions-fullerton,33.864991,-117.890004,Vapor Solutions,645 S State College Blvd Ste C Fullerton CA 92831,vapeshops,90631,+17148700605,False
vapor-district-placentia-3,33.8730659,-117.8700027,Vapor District,112 N Bradford Ave Ste A Placentia CA 92870,vapeshops,90631,+17149933573,False
video-94-west-covina,34.0091899,-117.88599,Video 94,19050 La Puente Rd West Covina CA 91792,videoandgames tobaccoshops vapeshops,90631,+16268541145,False
joes-liquor-and-vape-brea,33.9301025,-117.8940992,Joe's Liquor & Vape,710 N Brea Blvd Ste B Brea CA 92821,beer_and_wine vapeshops,90631,+17142550717,False
rjvapes-anaheim,33.8503446252,-117.855649846,Rjvapes,3164 E La Palma Ave Ste B Anaheim CA 92806,vapeshops,90631,+17144034819,False
cks-vape-fullerton,33.8714167326,-117.907038971,CKS Vape,131 N Raymond Ave Fullerton CA 92831,vapeshops menscloth,90631,+17149303633,False
vista-verde-liquor-and-market-placentia,33.8958106,-117.8641759,Vista Verde Liquor & Market,1855 N Kraemer Blvd Placentia CA 92870,beer_and_wine vapeshops,90631,+17145245333,False
stone-smoke-shop-and-gift-fullerton-3,33.8739751,-117.9041035,Stone Smoke Shop and Gift,1330 E Chapman Ave Ste A Fullerton CA 92831,tobaccoshops vapeshops headshops,90631,+17143608244,False
iai-corporation-city-of-industry,34.0082155913,-117.849712819,IAI Corporation,20868 Currier Rd City of Industry CA 91789,vapeshops wholesale_stores headshops,90631,+18009263959,False
fz-smoke-shop-rowland-heights-5,33.9918679212,-117.889632731,FZ Smoke Shop,18938 Labin Ct Ste A206-2 Rowland Heights CA 91748,vapeshops,90631,+16267828288,False
ganja-juice-e-juice-and-vapor-bar-anaheim,33.861481,-117.85006,Ganja Juice E Juice & Vapor Bar,1313 N Miller St Ste D Anaheim CA 92806,tobaccoshops vapeshops,90631,+17145892818,False
smokerash-walnut,34.01008,-117.8596,Smokerash,385 S Lemon Ave Ste E- 104 Walnut CA 91789,tobaccoshops headshops vapeshops,90631,+19096341119,False
the-vape-site-rowland-heights-3,33.9872673,-117.8828631,The Vape Site,19257 Colima Rd Rowland Heights CA 91748,vapeshops,90631,+16264207605,False
vape-store-anaheim,33.8482695,-117.8891015,Vape Store,1048 N State College Blvd Anaheim CA 92806,vapeshops,90631,+17144919301,False
george-cigar-anaheim-4,33.82657,-117.91053,George Cigar,804 S Anaheim Blvd Anaheim CA 92805,tobaccoshops vapeshops,90638,+17147801195,False
smoke-and-vape-anaheim,33.8235784,-117.9162364,Smoke & Vape,853 S Harbor Blvd Anaheim CA 92805,vapeshops,90638,+17147784444,False
activape-west-covina-2,34.0581442,-117.935844,ActiVape,951 S Glendora Ave West Covina CA 91790,vapeshops,90640,+16269627018,False
lala-land-smoke-shop-la-puente,34.0370102,-117.9489184,Lala Land Smoke Shop,15442 Amar Rd La Puente CA 91744,tobaccoshops headshops vapeshops,90640,+16268553000,False
vape-three-el-monte,34.076782,-118.020523,Vape Three,3944 N Peck Rd Ste 4 El Monte CA 91732,vapeshops,90640,+16264530331,False
ultramist-vape-west-covina,34.0769802,-117.9079349,Ultramist Vape,351 N Azusa Ave West Covina CA 91791,vapeshops,90640,+16268593400,False
burnin-earth-smoke-shop-monrovia-3,34.1515400455,-118.00127246,Burnin' Earth Smoke Shop,103 W Foothill Blvd Monrovia CA 91016,tobaccoshops vapeshops,90640,+16269321995,False
vape-society-west-covina-4,34.0326147023,-117.914222388,Vape Society,2411 S Azusa Ave West Covina CA 91792,vapeshops,90640,+16263767888,False
e-vape-mods-burbank-3,34.1806777195,-118.303250538,E - Vape Mods,401 S Glenoaks Blvd Ste 204 Burbank CA 91502,vapeshops,90640,+18188028288,False
vapor-devils-west-covina,34.0796467,-117.907222,Vapor Devils,500 N Azusa Ave Ste 111 West Covina CA 91791,vapeshops,90670,+16268597777,False
smokeless-success-long-beach-3,33.7897166973,-118.154440685,Smokeless Success,3200 E Pacific Coast Hwy Ste D Long Beach CA 90804,vapeshops,90670,+15625673244,False
balboa-smoke-shop-garden-grove-2,33.7883651,-117.9625849,Balboa Smoke Shop,9760 Chapman Ave Garden Grove CA 92840,tobaccoshops vapeshops,90680,+17146361736,False
westside-lifestyle-westminster-3,33.773248091,-118.008172363,Westside Lifestyle,7140 Gardengrove Blvd Westminster CA 92683,vapeshops,90680,+17143790200,False
up-in-smoke-smoke-shop-costa-mesa-3,33.667716,-117.883263,Up In Smoke Smoke Shop,270 Bristol St Ste 101 Costa Mesa CA 92626,tobaccoshops vapeshops,90704,+17146411008,False
flawless-vape-shop-costa-mesa-6,33.6321985943,-117.914617248,Flawless Vape Shop,333 E 17th St Ste 21A Costa Mesa CA 92627,vapeshops,90704,+19495151515,False
mesa-vape-costa-mesa,33.6796142,-117.893721,Mesa Vape,891 W Baker St Ste B-11 Costa Mesa CA 92626,vapeshops,90704,+17147541125,False
south-county-vapors-3-tustin-tustin-2,33.736362,-117.824539,South County Vapors 3 - Tustin,14051 Newport Ave Ste C Tustin CA 92780,vapeshops,90704,+17145055800,False
vapor-hb-huntington-beach-2,33.7168575,-117.9996337,Vapor HB,16942 Gothard St Ste H Huntington Beach CA 92647,vapeshops,90704,+17148489300,False
glass-mahal-costa-mesa-3,33.6568336487,-117.908309937,Glass Mahal,2263 Fairview Rd Ste E Costa Mesa CA 92627,vapeshops tobaccoshops headshops,90704,+19492009348,False
hickory-smoke-shop-santa-ana,33.7454150341,-117.860800769,Hickory Smoke Shop,720 E First St Santa Ana CA 92701,tobaccoshops vapeshops headshops,90704,+17145433800,False
tobacco-stop-santa-ana-2,33.703394,-117.88562,Tobacco Stop,3312 S Bristol St Santa Ana CA 92704,tobaccoshops vapeshops headshops,90704,+17145403713,False
smoke-and-vape-fountain-valley,33.7135634,-117.9297058,Smoke And Vape,17197 Newhope St Ste F Fountain Valley CA 92708,vapeshops headshops,90704,+18336667770,False
ecig-emporium-irvine-2,33.6763448,-117.8558316,ECig Emporium,2222 Michelson Dr Unit 238 Irvine CA 92612,tobaccoshops vapeshops,90704,+19498337927,False
sunset-vapor-huntington-beach,33.712928,-118.063698,Sunset Vapor,17212 Pacific Coast Hwy Ste A Huntington Beach CA 92649,vapeshops,90704,+15625920077,False
c3-vapors-and-coffee-shop-costa-mesa-3,33.6389823,-117.9215509,C3 Vapors And Coffee Shop,1779 Newport Blvd Fl 2 Costa Mesa CA 92627,vapeshops coffee,90704,+19496127475,False
vape-it-up-hb-huntington-beach,33.6577293486,-118.000814479,Vape It Up HB,126 Main St Ste 103 Huntington Beach CA 92648,vapeshops,90704,+17148898960,False
8-ball-vapor-fountain-valley-2,33.7309819606,-117.924084389,8 Ball Vapor,11759-A Edinger Ave Fountain Valley CA 92708,vapeshops,90704,+17148843461,False
smoke-zone-and-vapes-santa-ana,33.7457734,-117.9221225,Smoke Zone & Vapes,3839 W 1st St Santa Ana CA 92703,tobaccoshops vapeshops,90704,+17142658948,False
9m-smoke-shop-costa-mesa,33.64386,-117.92012,9M Smoke Shop,522 W 19th St Costa Mesa CA 92627,tobaccoshops headshops vapeshops,90704,+19495741678,False
smokey-smoke-shop-huntington-beach,33.6863781,-117.9628749,Smokey Smoke Shop,19027 Bushard St Huntington Beach CA 92646,tobaccoshops vapeshops headshops,90704,+17148611477,False
smokeez-santa-ana,33.7601074,-117.8331935,SmokeeZ,2301 E 17th St Santa Ana CA 92705,tobaccoshops vapeshops,90704,+17146175990,False
habitat-smoke-shop-huntington-beach,33.7031810294,-117.989547923,Habitat Smoke Shop,17841 Beach Blvd Huntington Beach CA 92647,headshops tobaccoshops vapeshops,90704,+17149160145,False
metavape-huntington-beach,33.7167759818,-118.009453116,MetaVape,6829 Warner Ave Huntington Beach CA 92647,vapeshops,90704,+17143755726,False
match-free-electronic-cigarettes-long-beach-4,33.7656626083,-118.159142971,Match Free Electronic Cigarettes,2769 E Broadway Ave Long Beach CA 90803,tobaccoshops vapeshops,90716,+15622482555,False
american-smoke-n-vape-long-beach,33.7754749,-118.1500581,American Smoke N' Vape,3605 E 7th St. Long Beach CA 90804,vapeshops tobaccoshops,90716,+15624342500,False
os-tobacco-long-beach-3,33.7824751,-118.16059,OS Tobacco,2624 E Anaheim St Long Beach CA 90804,food vapeshops tobaccoshops,90716,+15624337601,False
cherry-smoke-and-skate-shop-long-beach-2,33.7719802,-118.1675351,Cherry Smoke & Skate Shop,418 Cherry Ave Long Beach CA 90802,vapeshops skateshops,90716,+15623435151,False
the-lil-smoke-shop-long-beach-3,33.7695999,-118.18577,The Lil Smoke Shop,523 E Broadway Long Beach CA 90802,tobaccoshops headshops vapeshops,90731,+15626062301,False
vape-master-and-smoke-shop-long-beach,33.7882528,-118.1891351,Vape Master & Smoke Shop,1708 Long Beach Blvd Long Beach CA 90813,vapeshops,90733,+15629124455,False
smoking-box-long-beach,33.77930224,-118.178762951,Smoking Box,1008 Alamitos Ave Long Beach CA 90813,tobaccoshops vapeshops headshops,90733,+15622469980,False
sams-smoke-shop-long-beach,33.7826552242,-118.183130175,Sam's Smoke Shop,775 E Anaheim St Long Beach CA 90813,tobaccoshops vapeshops,90733,+15622561313,False
sinless-vape-long-beach-4,33.789851,-118.179567,Sinless Vape,1026 E Pacific Coast Hwy Long Beach CA 90806,vapeshops,90733,+15625910022,False
surf-city-vapors-huntington-beach,33.7238493375,-118.0416509,Surf City Vapors,16373 Bolsa Chica St Huntington Beach CA 92649,vapeshops,90740,+17148464044,False
vapordna-huntington-beach,33.7010151,-117.9880863,VaporDNA,8162 Talbert Ave Ste 103 Huntington Beach CA 92646,vapeshops,90740,+17148459296,False
one-stop-smoke-shop-huntington-beach,33.692569,-117.9878,One Stop Smoke Shop,18582 Beach Blvd Ste 9 Huntington Beach CA 92648,tobaccoshops vapeshops headshops,90740,+17149643400,False
magic-budz-smoke-shop-huntington-beach,33.7095879,-117.988579,Magic Budz Smoke Shop,17404 Beach Blvd Huntington Beach CA 92647,tobaccoshops vapeshops,90740,+16574649281,False
huntington-beach-vape-shop-huntington-beach-2,33.7086250504,-117.996472611,Huntington Beach Vape Shop,7611 Slater Ave Huntington Beach CA 92647,vapeshops,90740,+17143752555,False
e-cigarette-empire-las-vegas,33.7087721,-117.9962804,E-Cigarette Empire,365 Pilot Rd Ste B las vegas NV 89119,vapeshops,90740,+17023317212,False
palm-beach-vapors-huntington-beach-huntington-beach-2,33.7143841454,-118.024803571,Palm Beach Vapors- Huntington Beach,5960 Warner Ave Huntington Beach CA 92649,vapeshops,90740,+17148408811,False
hb-smoke-and-vape-shop-huntington-beach-2,33.7299683,-118.0037213,HB Smoke & Vape Shop,7194 Edinger Ave Huntington Beach CA 92647,tobaccoshops vapeshops,90740,+17148419929,False
paradise-vape-westminster,33.737759,-117.989498,Paradise Vape,15451 Beach Blvd Westminster CA 92683,vapeshops,90740,+18557978273,False
corner-vapory-huntington-beach,33.6801083386,-117.954105735,Corner Vapory,19459 Brookhurst St Huntington Beach CA 92646,vapeshops,90742,+18443131357,False
day-days-smoke-shop-santa-ana,33.760311,-117.871338,Day-Day's Smoke Shop,339 W 17th St Santa Ana CA 92706,tobaccoshops vapeshops,90742,+17145410996,False
flawless-vapes-and-supplies-fountain-valley,33.71641,-117.96363,Flawless Vapes & Supplies,9475 Warner Ave Ste B Fountain Valley CA 92708,vapeshops,90742,+17149626300,False
universal-stop-pasadena,34.1690368652,-118.111656189,Universal Stop,1878 E Washington Blvd Pasadena CA 91104,tobaccoshops vapeshops waterstores,91001,+16267973333,False
crystal-vapor-la-caÃ±ada-flintridge,34.217035819,-118.226929517,Crystal Vapor,2259 Foothill Blvd La CaÃ±ada Flintridge CA 91011,vapeshops,91001,+18182482200,False
vape-mastaz-pasadena,34.149262,-118.120585,Vape Mastaz,1446 E Walnut St Pasadena CA 91106,vapeshops,91001,+16266578911,False
all-in-1-smoke-shop-san-gabriel,34.1287021,-118.0729651,All In 1 Smoke Shop,7250 Rosemead Blvd San Gabriel CA 91775,vapeshops tobaccoshops,91001,+16267415425,False
the-clean-vape-altadena,34.18495,-118.13215,The Clean Vape,2271 N Lake Ave Ste 56 Altadena CA 91001,vapeshops,91001,+16266428273,False
vape-icon-san-gabriel-2,34.1030388,-118.1004715,Vape Icon,113 W Las Tunas Dr Ste 206 San Gabriel CA 91776,vapeshops,91001,+16262251432,False
vapor-room-pasadena,34.14644,-118.09385,Vapor Room,2735 E Colorado Blvd Pasadena CA 91107,vapeshops,91001,+16268440080,False
la-crescenta-smoke-shop-la-crescenta,34.2286967,-118.2477498,La Crescenta Smoke Shop,3132 Foothill Blvd La Crescenta CA 91214,tobaccoshops vapeshops headshops,91003,+18182499177,False
vape-crave-burbank-burbank,34.17784,-118.31896,Vape Crave Burbank,409 N Victory Blvd Burbank CA 91502,vapeshops,91003,+18187365390,False
vape-on-la-crescenta-la-crescenta-montrose,34.2329063,-118.2543335,Vape On La Crescenta,3434 Foothill Blvd Ste B La Crescenta-Montrose CA 91214,vapeshops,91003,+18182498273,False
smokers-delight-burbank,34.19106,-118.32318,Smokers Delight,1527 N San Fernando Blvd Burbank CA 91504,tobaccoshops headshops vapeshops,91003,+18185633888,False
xplicit-vape-shop-tujunga-2,34.2527453,-118.296033,Xplicit Vape Shop,7502 Foothill Blvd Ste 203 Tujunga CA 91042,tobaccoshops vapeshops electronics,91003,+18182739826,False
munchies-mart-los-angeles-2,34.247903,-118.280652,Munchies Mart,6835 Foothill Blvd Los Angeles CA 91042,tobaccoshops vapeshops,91003,+18187993972,False
my-og-smoke-shop-rosemead,34.08074,-118.06754,My OG Smoke Shop,9262 Valley Blvd Rosemead CA 91770,tobaccoshops vapeshops,91003,+16265452500,False
primo-smoke-shop-monrovia,34.1405487,-118.0066223,Primo Smoke Shop,321 W Huntington Dr Monrovia CA 91016,tobaccoshops vapeshops,91006,+16264085070,False
west-covina-smoke-and-vape-west-covina-2,34.0528018153,-117.953112094,West Covina Smoke & Vape,1300 W Francisquito Ave Ste C West Covina CA 91790,tobaccoshops vapeshops,91006,+16269181600,False
puff-and-pass-smoke-and-vape-baldwin-park-9,34.0866261759,-117.965175777,Puff & Pass Smoke and Vape,14151 Ramona Blvd Ste 2B Baldwin Park CA 91706,tobaccoshops headshops vapeshops,91006,+16263371937,False
stone-smoke-shop-and-gift-duarte-7,34.1400321515,-117.957920354,Stone Smoke Shop And Gift,2165 Huntington Dr Duarte CA 91010,vapeshops tobaccoshops headshops,91006,+16265317333,False
baldwin-tobacco-baldwin-park,34.07885,-117.988899,Baldwin Tobacco,13020 Francisquito Ave Baldwin Park CA 91706,tobaccoshops vapeshops,91006,+16268134300,False
zvape-glendora,34.1262858,-117.8724451,Zvape,720 S Grand Ave Glendora CA 91740,vapeshops,91008,+16263359988,False
rippin-vapors-azusa-azusa,34.13256,-117.90788,Rippin Vapors Azusa,625 N Azusa Ave Azusa CA 91702,vapeshops,91008,+16263208273,False
classic-vapor-azusa-upland,34.1307075,-117.9078195,Classic Vapor-Azusa,373 E Foothill Blvd Ste E Upland CA 91786,vapeshops,91008,+19099203244,False
clubhouse-liquor-azusa,34.1289349,-117.882735,Clubhouse Liquor,1143 E Alosta Ave Azusa CA 91702,beer_and_wine tobaccoshops vapeshops,91008,+16269636555,False
puff-n-stuff-glendora,34.128494,-117.874956,Puff N Stuff,614 W Rte 66 Glendora CA 91740,headshops vapeshops,91008,+16263879010,False
cigarette-plus-covina,34.0863242,-117.873894945,Cigarette Plus,833 E Badillo St Covina CA 91723,vapeshops tobaccoshops headshops,91008,+16269749992,False
20-past-4-azusa,34.1260872,-117.8899841,20 Past 4,310 N Citrus Ave Ste L Azusa CA 91702,vapeshops tobaccoshops,91008,+16269699004,False
the-toke-vape-and-smoke-glendora,34.1076203,-117.8811318,The Toke Vape & Smoke,1774 S Barranca Ave Glendora CA 91740,vapeshops tobaccoshops headshops,91008,+14242939313,False
mode-vape-san-dimas,34.10699,-117.80603,Mode Vape,133 E Bonita Ave Ste 100 San Dimas CA 91773,vapeshops,91009,+19095997999,False
the-vaping-section-diamond-bar,34.0347290637,-117.805774882,The Vaping Section,908 N Diamond Bar Blvd Diamond Bar CA 91765,vapeshops,91009,+19098601051,False
vapor-junkies-walnut,34.0454983,-117.8496864,Vapor Junkies,1321 N Grand Ave Walnut CA 91789,vapeshops,91009,+19095950255,False
smoke-and-dreams-san-dimas-3,34.1052029,-117.8182036,Smoke and Dreams,633 W Arrow Hwy San Dimas CA 91773,tobaccoshops vapeshops,91009,+19095999555,False
mode-vape-glendora,34.1067849675,-117.849435262,Mode Vape,747 E Arrow Hwy Ste B Glendora CA 91740,vapeshops,91009,+16264841182,False
vapor-boss-san-dimas,34.10345,-117.80761,Vapor Boss,105 W Arrow Hwy Ste 4 San Dimas CA 91773,vapeshops,91009,+19095998277,False
tobacco-and-more-vape-west-covina,34.0741467,-117.9261979,Tobacco & More VAPE,120 N Vincent Ave Ste 3007 West Covina CA 91790,tobaccoshops vapeshops,91009,+16269663999,False
myvapors-west-covina-9,34.0697300434,-117.890069336,myVapors,196 S Citrus St West Covina CA 91791,vapeshops,91009,+16263327438,False
allure-vapor-shop-la-verne,34.11403,-117.76456,Allure Vapor Shop,2105 Foothill Blvd Ste F La Verne CA 91750,vapeshops,91010,+19095961919,False
a-and-t-smoke-shop-la-crescenta-montrose-5,34.23923,-118.26358,A & T Smoke Shop,3857 Foothill Blvd Ste 3 La Crescenta-Montrose CA 91214,vapeshops tobaccoshops,91011,+18182016640,False
elite-smoke-shop-tujunga,34.2480186,-118.2855018,Elite Smoke Shop,7071 Foothill Blvd Tujunga CA 91042,tobaccoshops vapeshops,91011,+18183537733,False
matador-smoke-shop-la-crescenta,34.2205626,-118.2491287,Matador Smoke Shop,3208 Honolulu Ave La Crescenta CA 91214,vapeshops,91011,+18182753653,False
glendale-house-of-smokes-glendale,34.1747299,-118.29398,Glendale House of Smokes,1921 W Glenoaks Blvd Glendale CA 91201,tobaccoshops vapeshops headshops,91011,+18185627898,False
mtv-smokeshop-tujunga,34.2477804776,-118.282514321,MTV Smokeshop,6918 Foothill Blvd Tujunga CA 91042,vapeshops,91011,+18183539767,False
commerce-smoke-shop-tujunga,34.25116,-118.28897,Commerce Smoke Shop,10031 Commerce Ave Tujunga CA 91042,tobaccoshops vapeshops,91011,,False
smokers-addicts-west-covina-2,34.0785874316,-117.907040343,Smokers Addicts,432 N Azusa Ave West Covina CA 91791,tobaccoshops headshops vapeshops,91016,+16269389196,False
vape-noir-burbank,34.1864215,-118.3103941,Vape Noir,520 N Glenoaks Blvd Burbank CA 91502,vapeshops,91020,+18182380166,False
corner-market-sunland,34.2598399,-118.30292,Corner Market,10505 Mt Gleason Ave Sunland CA 91040,beer_and_wine vapeshops,91020,+18183534272,False
vapor-time-burbank,34.1834714,-118.3122355,Vapor Time,201 E Magnolia Blvd Burbank CA 91502,vapeshops,91020,,False
xplicit-vape-burbank,34.1980099,-118.3269,Xplicit Vape,2119 N Glenoaks Blvd Burbank CA 91504,vapeshops,91020,+18187365123,False
brazil-smoke-and-vape-shop-sun-valley,34.22433,-118.365997,Brazil Smoke & Vape Shop,8451 Sunland Blvd Sun Valley CA 91352,vapeshops,91040,+18185049341,False
vapeur-terp-los-angeles-2,34.22379,-118.3612,Vapeur Terp,8465 Glenoaks Blvd Unit A Los Angeles CA 91352,vapeshops headshops cannabis_clinics,91040,+18444202278,False
caught-the-vapors-burbank-2,34.1777905,-118.3405025,Caught the Vapors,2716 W Burbank Blvd Burbank CA 91505,vapeshops,91042,+18003919211,False
xplicit-vape-panorama-city-los-angeles-2,34.2218049,-118.428478,Xplicit Vape - Panorama City,13545 Roscoe Blvd Los Angeles CA 91402,vapeshops tobaccoshops,91042,+18188495811,False
valley-vape-shop-san-fernando,34.289325,-118.433625,Valley Vape Shop,603 N Maclay Ave San Fernando CA 91340,vapeshops,91042,+18184000143,False
gift-smoke-shop-pacoima,34.264811,-118.423193,Gift Smoke Shop,13312 Van Nuys Blvd Pacoima CA 91331,tobaccoshops vapeshops,91042,+18188965006,False
sylmar-smoke-shop-sylmar-3,34.3073261841,-118.430660641,Sylmar Smoke Shop,13630 Foothill Blvd Sylmar CA 91342,vapeshops tobaccoshops headshops,91042,+18188331500,False
valleysmokeshop-north-hollywood,34.20816,-118.38818,Valley Smoke Shop,7561 Lankershim Blvd North Hollywood CA 91605,tobaccoshops headshops vapeshops,91042,+18188213435,False
mr-puff-and-stuff-smoke-shop-north-hollywood,34.2157579614,-118.395672235,Mr Puff & Stuff Smoke Shop,12057 Strathern St North Hollywood CA 91605,tobaccoshops headshops vapeshops,91042,+18187687833,False
vapors-north-hollywood,34.20086,-118.42604,Vapors,13432 Sherman Way North Hollywood CA 91605,cannabis_clinics vapeshops,91042,,False
le-musÃ©e-du-fumeur-paris-3,48.8586285,2.382283,Le MusÃ©e du Fumeur,7 rue Pache 75011 Paris France,museums vapeshops,91131,+33146590551,False
clopinette-paris-2,48.8446530119,2.3022458022,Clopinette,43 rue Cambronne 75015 75015 Paris France,vapeshops,91131,+33142190154,False
kitclope-paris-5,48.8734784,2.3504722,Kitclope,42 rue d'Hauteville 75010 Paris France,vapeshops,91131,+33145232059,False
high-vaping-paris-2,48.8642179,2.331707,High Vaping,4 rue Saint-Roch 75001 Paris France,vapeshops,91131,+33954560922,False
kitclope-paris-4,48.8573509,2.3680646,Kitclope,57 boulevard Beaumarchais 75003 Paris France,vapeshops,91131,+33144789051,False
vapostore-paris-5,48.8768997,2.31706,Vapostore,71 bd Malesherbes 75008 Paris France,vapeshops,91131,+33973163232,False
kitclope-paris-3,48.8863386015,2.32224586249,Kitclope,46 rue la Comdamine 75017 Paris France,vapeshops,91131,+33143870790,False
alter-smoke-miromesnil-cigarette-electronique-paris,48.8733279,2.316114,Alter Smoke Miromesnil - Cigarette Electronique,28 rue de Miromesnil 75008 Paris France,tobaccoshops vapeshops,91131,+33142651734,False
la-brumeuse-pontault-combault,48.80483,2.61405,La Brumeuse,31 ave de la RÃ©publique 77340 Pontault Combault France,vapeshops,91131,+33160294022,False
point-smoke-vincennes-2,48.848365,2.433507,Point Smoke,125 rue de Fontenay 94300 Vincennes France,vapeshops,91131,+33950442322,False
mister-phony-paris-02,48.8685199,2.34718,Mister Phony,2 rue de Mulhouse 75002 Paris 02 France,mobilephonerepair vapeshops,91131,+33951205154,False
vapostore-paris,48.8257491,2.3510112,Vapostore,191 Rue Tolbiac 75013 Paris France,vapeshops,91131,+33145887717,False
eway-vape-paris,48.83948,2.35181,Eway Vape,7 Square Adanson 75005 Paris France,vapeshops,91131,+33145850841,False
tabac-du-palais-paris-2,48.854995822,2.34595958143,Tabac du Palais,5 boulevard du Palais 75004 Paris France,tobaccoshops giftshops vapeshops,91131,+33967806301,False
clop-electrochic-rueil-malmaison,48.8889078491,2.1681888029,Clop Electrochic,16 place de l'Europe 92500 Rueil-Malmaison France,vapeshops,91131,+33147498284,False
pipeline-store-paris,48.881764,2.317415,Pipeline Store,94 boulevard des Batignolles 75017 Paris France,vapeshops,91131,+33980623719,False
maison-lavape-paris,48.8503,2.37486,Maison Lavape,77 avenue Ledru Rollin 75012 Paris France,vapeshops,91131,+33153170544,False
voluptycig-paris-20,48.8722159,2.3917596,Voluptycig,302 Rue Des Pyrenees 75020 Paris 20 France,tobaccoshops vapeshops,91131,+33171195180,False
cig-star-thousand-oaks,34.2100617,-118.8402686,Cig Star,2060 E Avenida De Los Arboles Ste H Thousand Oaks CA 91362,tobaccoshops vapeshops,91301,+18054928652,False
the-vapor-spot-vape-shop-and-vapor-bar-northridge,34.2312628387,-118.553075865,The Vapor Spot- Vape Shop and Vapor Bar,8850 Tampa Ave Ste 106 Northridge CA 91324,vapeshops,91302,+18189602261,False
skyline-smoke-shop-canoga-park,34.2199346,-118.5890719,Skyline Smoke Shop,20927 Roscoe Blvd Canoga Park CA 91304,vapeshops tobaccoshops headshops,91302,,False
gz-smoke-shop-and-vape-los-angeles,34.2208752036,-118.605368882,Gz Smoke Shop and Vape,21934 Schoenborn St Los Angeles CA 91304,tobaccoshops vapeshops,91302,+18189994353,False
purple-haze-smoke-shop-los-angeles-4,34.2080141,-118.5708551,Purple Haze Smoke Shop,7576 Winnetka Ave Los Angeles CA 91306,headshops vapeshops tobaccoshops,91302,+18186268462,False
crystal-smoke-shop-los-angeles,34.2086123278,-118.595869414,Crystal Smoke Shop,21305 Saticoy St Los Angeles CA 91304,vapeshops tobaccoshops,91302,+18189638392,False
smoke-n-vape-wholesale-northridge-2,34.2315483,-118.556221,Smoke N' Vape Wholesale,19441 Business Center Dr Unit 108 Northridge CA 91324,vapeshops tobaccoshops,91302,+18189628273,False
smoke-solutions-los-angeles-2,34.2105425,-118.5711449,Smoke Solutions,7659 Winnetka Ave Los Angeles CA 91306,vapeshops tobaccoshops,91302,+18187178211,False
purple-haze-chatsworth,34.2495585068,-118.606234372,Purple Haze,9857 Topanga Canyon Blvd Chatsworth CA 91311,tobaccoshops headshops vapeshops,91304,+18183414060,False
the-v-spot-vapor-simi-valley-4,34.2848541066,-118.717264789,The V Spot Vapor,2760 Tapo Canyon Rd Ste 9 Simi Valley CA 93063,vapeshops,91304,+18055738273,False
818-vapor-bar-chatsworth-2,34.2537266,-118.6060161,818 Vapor Bar,10104 Topanga Canyon Blvd Chatsworth CA 91311,vapeshops,91304,+18188824451,False
tobacco-cigars-and-more-simi-valley,34.279666,-118.719001,Tobacco, Cigars & More,3949 Cochran St Ste A Simi Valley CA 93063,tobaccoshops headshops vapeshops,91304,+18055271111,False
cig-4-u-chatsworth-4,34.25369,-118.606018,CIG 4 U,10104 Topanga Cyn Blvd Chatsworth CA 91311,vapeshops,91304,+18188824451,False
smoke-and-vape-simi-valley,34.27872,-118.709655,Smoke & Vape,4386 Cochran St Simi Valley CA 93063,vapeshops tobaccoshops,91304,+18053061183,False
cigarette-store-los-angeles,34.2463556659,-118.53692614,Cigarette Store,9677 Reseda Blvd Los Angeles CA 91324,tobaccoshops vapeshops headshops,91304,+18184077106,False
ahk-cigarettes-plus-northridge,34.22113,-118.53765,Ahk Cigarettes Plus,18535 Roscoe Blvd Northridge CA 91324,vapeshops,91304,+18187722656,False
ie-somke-and-vape-northridge,34.222621,-118.536708,IE Somke & Vape,8363 Reseda Blvd Northridge CA 91324,vapeshops tobaccoshops,91304,+19092460402,False
smoke-shop-chatsworth-2,34.2497357,-118.5884351,Smoke Shop,9862 De Soto Ave Chatsworth CA 91311,tobaccoshops headshops vapeshops,91304,+18187182768,False
purple-haze-smoke-shop-los-angeles-5,34.22832,-118.52698,Purple Haze Smoke Shop,8678 Lindley Ave Los Angeles CA 91325,headshops vapeshops tobaccoshops,91304,+18182803068,False
ecg-vapor-bar-los-angeles,34.2573853,-118.5900803,Ecg Vapor Bar,20945 Devonshire Los Angeles CA 91311,vapeshops,91304,+18183499479,False
ark-smoke-shop-granada-hills,34.2650472651,-118.517999947,Ark Smoke Shop,17609 Chatsworth St Granada Hills CA 91344,tobaccoshops vapeshops headshops,91307,+18183638600,False
bodega-vapes-los-angeles-2,34.2647351,-118.5194707,Bodega Vapes,17654 Chatsworth St Los Angeles CA 91344,vapeshops,91307,+18182174949,False
cloud-10-vape-bar-simi-valley-2,34.2654433,-118.796121,Cloud 10 Vape Bar,1464 Madera Rd Ste L Simi Valley CA 93065,vapeshops,91307,+18058422607,False
santa-clarita-valley-vape-valencia-3,34.377173,-118.56743,Santa Clarita Valley Vape,25269 The Old Rd Valencia CA 91381,vapeshops,91307,+16612558273,False
cloudz-smoke-and-vape-los-angeles-2,34.2501086,-118.5195121,Cloudz Smoke & Vape,17646 Lassen St Unit 6 Los Angeles CA 91325,vapeshops tobaccoshops headshops,91307,+18186789584,False
cigarette-empire-north-hills-2,34.2351020073,-118.484517938,Cigarette Empire,9048 Woodley Ave Unit A North Hills CA 91343,tobaccoshops headshops vapeshops,91307,+18188309911,False
smoke-depot-and-vapor-lounge-valencia,34.4102377228,-118.578547717,Smoke Depot & Vapor Lounge,26930 The Old Rd Valencia CA 91381,tobaccoshops vapeshops,91310,+16616780610,False
cloud-9-vape-pure-santa-clarita,34.4506543,-118.4969543,Cloud 9 Vape Pure,28124 Bouquet Canyon Rd Santa Clarita CA 91350,vapeshops,91310,+16616735544,False
the-vapor-department-santa-clarita,34.4227516,-118.5418874,The Vapor Department,23130 Valencia Blvd Santa Clarita CA 91355,vapeshops,91310,+16612003424,False
vape-os-santa-clarita,34.4156599045,-118.456132784,Vape O's,27536 Sierra Hwy Santa Clarita CA 91351,vapeshops,91310,+16613605213,False
idrip-vape-shop-santa-clarita-2,34.434334,-118.529259,IDrip Vape Shop,26893 Bouquet Canyon Rd Ste D Santa Clarita CA 91350,vapeshops tobaccoshops,91310,+16613608588,False
valencia-cigar-and-newsstand-valencia,34.4227817,-118.5428005,Valencia Cigar and Newsstand,23164 Valencia Blvd Valencia CA 91355,tobaccoshops mags vapeshops,91310,+16612594828,False
cig-store-1-santa-clarita,34.4169647708,-118.456457849,Cig Store 1,18563 Soledad Canyon Rd Santa Clarita CA 91351,tobaccoshops vapeshops,91310,+16612508430,False
vaping-district-santa-clarita,34.41608,-118.47523,Vaping District,19443 Soledad Canyon Rd Santa Clarita CA 91351,vapeshops tobaccoshops,91310,+16613674075,False
cig-shop-newhall,34.3787178397,-118.55693087,Cig Shop,24150 Lyons Ave Newhall CA 91321,tobaccoshops vapeshops,91310,+16612543550,False
anjys-smoke-shop-castaic,34.4957480829,-118.621876203,Anjy's Smoke Shop,31755 Castaic Rd Castaic CA 91384,vapeshops tobaccoshops,91310,+16612573900,False
cig-world-canyon-country,34.42731,-118.42407,Cig World,16507 Soledad Canyon Rd Canyon Country CA 91351,tobaccoshops vapeshops headshops,91310,+16612504808,False
luxury-liquids-canyon-country,34.41336,-118.46343,Luxury Liquids,18820 Mandan St Unit 415 Canyon Country CA 91351,vapeshops,91310,+16613734907,False
good-vibes-van-nuys,34.20152,-118.48503,Good Vibes,16139 Sherman Way Van Nuys CA 91406,tobaccoshops headshops vapeshops,91316,+18188495076,False
vapor-connection-camarillo,34.2192539,-119.0538792,Vapor Connection,330 N Lantana St Ste 28 Camarillo CA 93010,vapeshops,91319,+18054848410,False
queens-vape-moorpark,34.27823,-118.88668,Queens Vape,476 W Los Angeles Ave Unit A12 Moorpark CA 93021,vapeshops,91319,+18059908273,False
zzyzx-smoke-shop-camarillo,34.2223161,-119.0394412,Zzyzx Smoke Shop,2127 Pickwick Dr Camarillo CA 93010,vapeshops headshops,91319,+18059875888,False
cig-store-8-camarillo,34.2200317,-119.0391312,Cig Store 8,361 Arneill Rd Camarillo CA 93010,tobaccoshops vapeshops,91319,+18053891690,False
west-end-cigars-camarillo-2,34.2206269,-119.0508776,West End Cigars,459 Carmen Dr Camarillo CA 93010,tobaccoshops headshops vapeshops,91319,+18054847451,False
cig-store-15-camarillo,34.2365806383,-119.036739055,Cig Store 15,2510 Las Posas Rd Ste H Camarillo CA 93010,tobaccoshops vapeshops,91319,+18054829328,False
wild-side-gallery-camarillo-3,34.2179253,-119.0451384,Wild Side Gallery,1877 E Daily Dr Ste D1 Camarillo CA 93010,tobaccoshops vapeshops,91319,+18054650493,False
vapage-premium-e-cigarettes-camarillo,34.2010384,-119.0075912,Vapage Premium E-Cigarettes,750 Calle Plano Camarillo CA 93012,vapeshops,91319,+18053092400,False
hookah-valley-simi-valley-4,34.26091,-118.7949066,Hookah Valley,1230 Madera Rd Ste 3 Simi Valley CA 93065,tobaccoshops vapeshops,91319,+18055777422,False
liquid-barn-simi-valley,34.2763764217,-118.786214708,Liquid Barn,2265 Ward Ave Unit C Simi Valley CA 93065,vapeshops,91319,+18185847201,False
zee-vape-and-hookah-simi-valley,34.2709601,-118.7615249,Zee Vape & Hookah,1869 Erringer Rd Simi Valley CA 93065,vapeshops tobaccoshops,91319,+18052105741,False
la-vida-loca-smoke-shop-santa-paula-2,34.3456129536,-119.072391376,La Vida Loca Smoke Shop,110 W Harvard Blvd Ste F Santa Paula CA 93060,vapeshops tobaccoshops,91319,,False
super-smoke-shops-los-angeles,34.2988643,-118.4590497,Super Smoke Shops,12639 San Fernando Rd Los Angeles CA 91342,vapeshops tobaccoshops,91321,+18183366072,False
vapetag-north-hills,34.2352,-118.47384,VapeTag,15650 Nordhoff St Ste 106B North Hills CA 91343,vapeshops,91321,+17475294080,False
got-2-vape-mission-hills,34.2641731178,-118.468195244,Got 2 Vape,15418 Chatsworth St Mission Hills CA 91345,vapeshops,91321,+18188106171,False
5-star-hookah-granada-hills-3,34.2646657,-118.5163579,5 Star Hookah,17524 Chatsworth St Granada Hills CA 91344,tobaccoshops headshops vapeshops,91321,+18183686800,False
my-smoke-shop-granada-hills,34.2727634,-118.5020551,My Smoke Shop,11142 Balboa Blvd GRANADA HILLS CA 91344,vapeshops tobaccoshops headshops,91321,+18183603331,False
country-club-liquor-granada-hills,34.27168,-118.50256,Country Club Liquor,11067 Balboa Blvd Granada Hills CA 91344,beer_and_wine tobaccoshops vapeshops,91321,+18183635100,False
ja-smoke-shop-los-angeles,34.271655598,-118.484265805,JA Smoke Shop,16156 San Fernando Mission Blvd Los Angeles CA 91344,vapeshops,91321,+18184881503,False
b-and-ni-tobbaco-arleta,34.242551,-118.426011,B&Ni Tobbaco,13439 Osborne Ste 8 Arleta CA 91331,tobaccoshops headshops vapeshops,91322,+18188997700,False
rael-tobacco-pacoima,34.2653595407,-118.402408138,Rael Tobacco,10750 Glenoaks Blvd Ste 2 Pacoima CA 91331,tobaccoshops vapeshops,91322,+13237405883,False
2-bros-smoke-shop-and-vape-los-angeles-2,34.235179,-118.527702,2 Bros Smoke Shop & Vape,18110 Nordhoff St Los Angeles CA 91325,tobaccoshops vapeshops,91324,+18185271401,False
your-smoke-shop-los-angeles,34.23593,-118.48456,Your Smoke Shop,16155 Nordhoff St Los Angeles CA 91343,vapeshops tobaccoshops,91325,+17474440101,False
purple-haze-smoke-shop-granada-hills,34.2641992,-118.5021351,Purple Haze Smoke Shop,10670 Balboa Blvd Ste A Granada Hills CA 91344,headshops vapeshops,91325,+18189235209,False
m-and-m-tobacco-granada-hills,34.2574649661,-118.48548,M & M Tobacco,16217 Devonshire St Granada Hills CA 91344,tobaccoshops vapeshops,91325,+18183639771,False
badabong-van-nuys-2,34.20964,-118.47652,Badabong,7640 Densmore Ave Van Nuys CA 91406,headshops vapeshops,91325,+18188496929,False
l-a-vapeshop-los-angeles,34.287014,-118.4457932,L.A. Vapeshop,1419 San Fernando Rd Los Angeles CA 91340,vapeshops,91331,+18186988352,False
slys-cigarette-smoke-shop-san-fernando,34.2989156,-118.4383365,Slys Cigarette Smoke Shop,2037 Glenoaks Blvd San Fernando CA 91340,tobaccoshops vapeshops,91333,+18183651280,False
bills-smoke-shop-sylmar-2,34.3075192,-118.4493442,Bill's Smoke Shop,13036 Glenoaks Blvd Sylmar CA 91342,menscloth vapeshops tobaccoshops,91340,+18186390193,False
fast-stop-smoke-shop-van-nuys,34.2010245888,-118.440564093,Fast Stop Smoke Shop,14114 Sherman Way Van Nuys CA 91405,hookah_bars vapeshops,91343,+18189225253,False
lax-smoke-shop-and-vape-bar-van-nuys,34.208332,-118.465433,Lax Smoke Shop & Vape Bar,15240 Saticoy St Van Nuys CA 91405,tobaccoshops vapeshops,91343,+18183055655,False
smoke-depot-los-angeles,34.1940749,-118.4308076,Smoke Depot,13659 Vanowen St Los Angeles CA 91405,tobaccoshops vapeshops headshops,91343,+18188495994,False
818-vapor-bar-north-hollywood,34.1870499,-118.4119034,818 Vapor Bar,12801 Victory Blvd North Hollywood CA 91606,vapeshops,91352,+18189258155,False
high-desert-vapor-quartz-hill,34.6456042,-118.2188201,High Desert Vapor,5015 W Columbia Way Quartz Hill CA 93536,vapeshops,91380,+16619433030,False
smoke-for-less-lancaster,34.6603649,-118.2033,Smoke For Less,4073 W Ave L Lancaster CA 93536,headshops vapeshops,91380,+16619435684,False
premium-cigar-and-vape-palmdale,34.6317129715,-118.22030358,Premium Cigar & Vape,5037 W Ave N Ste 7 Palmdale CA 93551,vapeshops headshops,91380,+16612067530,False
smoke-shop-los-angeles-7,34.16516,-118.36829,Smoke Shop,10909 W Magnolia Blvd Los Angeles CA 91601,vapeshops,91503,+16268002569,False
the-vapour-lounge-rancho-cucamonga-3,34.1050457,-117.5459227,The Vapour Lounge,8188 Rochester Ave Ste D Rancho Cucamonga CA 91730,vapeshops,91701,+19099451898,False
up-in-smoke-smoke-shop-upland,34.1066222,-117.6289686,Up In Smoke Smoke Shop,1466 E Foothill Blvd Ste L Upland CA 91786,tobaccoshops vapeshops headshops,91701,+19099850081,False
flawless-vape-shop-rancho-cucamonga-2,34.110862,-117.577278,Flawless Vape Shop,7890 Haven Ave Ste 13a Rancho Cucamonga CA 91730,vapeshops,91701,+19096605611,False
909-vapor-ontario,34.0701849,-117.5534611,909 Vapor,4451 Ontario Mills Pkwy Ste F Ontario CA 91764,vapeshops,91701,+19099877015,False
e-cig-city-upland-upland-3,34.1070949,-117.6707099,E-Cig City Upland,1229 W Foothill Blvd Upland CA 91786,vapeshops,91701,+19099464333,False
vape-escape-upland,34.0931619,-117.6699451,Vape Escape,130 S Mountain Ave Ste J Upland CA 91786,vapeshops,91701,+19099821980,False
smokers-1st-choice-fontana-2,34.119906,-117.5143751,Smokers 1st Choice,7373 East Ave Ste C Fontana CA 92336,tobaccoshops vapeshops,91701,+19098032992,False
classic-vapor-upland,34.1075251,-117.645706,Classic Vapor,373 E Foothill Blvd Ste F Upland CA 91786,vapeshops,91701,+19099203244,False
vapor-boss-upland,34.1071850806,-117.664350718,Vapor Boss,959 W Foothill Blvd Upland CA 91786,vapeshops,91701,+19093608748,False
stardust-smoke-shop-rancho-cucamonga,34.1082794219,-117.593441159,Stardust Smoke Shop,8011 Archibald Ave Rancho Cucamonga CA 91730,tobaccoshops headshops vapeshops,91701,+19094767648,False
one-stop-smoke-shop-ontario,34.0778373631,-117.628595196,One Stop Smoke Shop,1345 E 4th St Ontario CA 91764,vapeshops headshops tobaccoshops,91701,+19093916716,False
everlast-vapor-ontario-2,34.0865516542,-117.668988055,Everlast Vapor,1520 N Mountain Ave Ontario CA 91762,vapeshops,91701,+19097493474,False
kaotik-vapors-rancho-cucamonga,34.095052,-117.609845,Kaotik Vapors,8949 9th St Unit 150 Rancho Cucamonga CA 91730,vapeshops,91701,+19094811871,False
ievapor-rancho-cucamonga,34.095035553,-117.600402832,IEVapor,9375 9th St Rancho Cucamonga CA 91730,vapeshops,91701,+19096639052,False
goodlife-smoke-shop-ontario-3,34.0701849,-117.5534611,Goodlife Smoke Shop,4451 Ontario Mills Pkwy Ste E Ontario CA 91764,headshops vapeshops,91701,+19099877030,False
new-era-vape-ontario,34.047966,-117.650367,New Era Vape,1413 S Euclid Ave Ontario CA 91762,vapeshops,91701,+19092228563,False
smokers-outlet-upland,34.0931619,-117.6699451,Smokers Outlet,130 S Mountain Ave Ste C Upland CA 91786,tobaccoshops vapeshops,91701,+19099496015,False
smoke-and-gift-upland-2,34.1079095988,-117.6602,Smoke and Gift,745 W Foothill Blvd Upland CA 91786,vapeshops tobaccoshops,91701,+19092560056,False
smoke-and-vape-ontario-2,34.0674553,-117.6513443,Smoke & Vape,415 N Euclid Ave Ontario CA 91762,tobaccoshops vapeshops,91701,+19093959911,False
tesfa-1-smoke-plus-ontario,34.077624968,-117.609557281,Tesfa #1 Smoke Plus,1949 E 4th St Ontario CA 91764,tobaccoshops headshops vapeshops,91701,+19092347784,False
z-smoke-shop-san-dimas-3,34.0737631614,-117.829126666,Z Smoke Shop,1118 Via Verde Ave San Dimas CA 91773,tobaccoshops headshops vapeshops,91702,+19095929230,False
eden-gifts-and-tobacco-pomona,34.10535,-117.7487149,Eden Gifts & Tobacco,3177 North Garey Ave Pomona CA 91767,vapeshops giftshops headshops,91702,+19095935333,False
pomona-smoke-n-vape-pomona-2,34.0899250341,-117.738195,Pomona Smoke N Vape,636 E Arrow Hwy Pomona CA 91767,vapeshops tobaccoshops headshops,91702,+19093993993,False
vape-demand-chino,33.9961247424,-117.689488839,Vape Demand,14122 Central Ave Unit C Chino CA 91710,vapeshops,91708,+19099020447,False
vapor-world-chino-hills,33.9875020645,-117.716207284,Vapor World,14676 Pipeline Ave Ste P Chino Hills CA 91709,vapeshops,91708,+19095977722,False
vapor-empire-chino-2,34.0031217,-117.722853,Vapor Empire,13788 Roswell Ave Unit 116 Chino CA 91710,vapeshops,91708,+19096289333,False
vaping-ape-inland-empire-ontario-2,34.03324465,-117.667877823,Vaping Ape Inland Empire,2211 S Mountain Ave Ontario CA 91762,vapeshops,91708,+19099884240,False
vapour-heights-chino,34.0006866666,-117.716108892,Vapour Heights,4036 Grand Ave Ste I Chino CA 91710,vapeshops,91708,+19096278070,False
dank-smoke-shop-chino,33.9983999,-117.71597,Dank Smoke Shop,4012 Grand Ave Chino CA 91710,tobaccoshops vapeshops headshops,91708,+19095903674,False
socal-vapour-chino-3,34.0156698,-117.6890708,SoCal Vapour,13085 Central Ave Ste 2 Chino CA 91710,vapeshops,91708,+19096275265,False
cigarette-plus-and-vape-store-chino,34.0339311,-117.6892651,Cigarette Plus and Vape Store,12079 Central Ave Chino CA 91710,tobaccoshops vapeshops,91708,+19095901494,False
empire-vape-norco-2,33.908692,-117.560486,Empire Vape,1825 Hamner Ave Ste F Norco CA 92860,vapeshops,91708,+19517388277,False
